[{"longitude":"-43.063351","tecnologia":"HFC","latitude":"-22.82679","uf":"RJ","color":"red","cidade":"São Gonçalo","name":"São Gonçalo, RJ <br> HFC"},{"longitude":"-49.372887","tecnologia":"HFC","latitude":"-28.672267","uf":"SC","color":"red","cidade":"Criciúma","name":"Criciúma, SC <br> HFC"},{"longitude":"-46.18541","tecnologia":"HFC","latitude":"-23.52082","uf":"SP","color":"red","cidade":"Mogi das Cruzes","name":"Mogi das Cruzes, SP <br> HFC"},{"longitude":"-45.887521","tecnologia":"HFC","latitude":"-23.393311","uf":"SP","color":"red","cidade":"Santa Branca","name":"Santa Branca, SP <br> HFC"},{"longitude":"-48.355751","tecnologia":"HFC","latitude":"-10.239973","uf":"TO","color":"red","cidade":"Palmas","name":"Palmas, TO <br> HFC"},{"longitude":"-60.02123","tecnologia":"HFC","latitude":"-3.118662","uf":"AM","color":"red","cidade":"Manaus","name":"Manaus, AM <br> HFC"},{"longitude":"-38.321008","tecnologia":"HFC","latitude":"-12.8978","uf":"BA","color":"red","cidade":"Lauro de Freitas","name":"Lauro de Freitas, BA <br> HFC"},{"longitude":"-38.501068","tecnologia":"HFC","latitude":"-12.97178","uf":"BA","color":"red","cidade":"Salvador","name":"Salvador, BA <br> HFC"},{"longitude":"-43.926572","tecnologia":"HFC","latitude":"-19.910183","uf":"MG","color":"red","cidade":"Belo Horizonte","name":"Belo Horizonte, MG <br> HFC"},{"longitude":"-44.05392","tecnologia":"HFC","latitude":"-19.932079","uf":"MG","color":"red","cidade":"Contagem","name":"Contagem, MG <br> HFC"},{"longitude":"-51.42592","tecnologia":"HFC","latitude":"-23.415296","uf":"PR","color":"red","cidade":"Arapongas","name":"Arapongas, PR <br> HFC"},{"longitude":"-49.529026","tecnologia":"HFC","latitude":"-25.452535","uf":"PR","color":"red","cidade":"Campo Largo","name":"Campo Largo, PR <br> HFC"},{"longitude":"-49.22616","tecnologia":"HFC","latitude":"-25.292487","uf":"PR","color":"red","cidade":"Colombo","name":"Colombo, PR <br> HFC"},{"longitude":"-49.264622","tecnologia":"HFC","latitude":"-25.419547","uf":"PR","color":"red","cidade":"Curitiba","name":"Curitiba, PR <br> HFC"},{"longitude":"-51.1691","tecnologia":"HFC","latitude":"-23.303975","uf":"PR","color":"red","cidade":"Londrina","name":"Londrina, PR <br> HFC"},{"longitude":"-49.19267","tecnologia":"HFC","latitude":"-25.442949","uf":"PR","color":"red","cidade":"Pinhais","name":"Pinhais, PR <br> HFC"},{"longitude":"-43.200295","tecnologia":"HFC","latitude":"-22.912897","uf":"RJ","color":"red","cidade":"Rio de Janeiro","name":"Rio de Janeiro, RJ <br> HFC"},{"longitude":"-51.185681","tecnologia":"HFC","latitude":"-29.912758","uf":"RS","color":"red","cidade":"Canoas","name":"Canoas, RS <br> HFC"},{"longitude":"-51.179161","tecnologia":"HFC","latitude":"-29.162905","uf":"RS","color":"red","cidade":"Caxias do Sul","name":"Caxias do Sul, RS <br> HFC"},{"longitude":"-51.184065","tecnologia":"HFC","latitude":"-29.851963","uf":"RS","color":"red","cidade":"Esteio","name":"Esteio, RS <br> HFC"},{"longitude":"-51.341853","tecnologia":"HFC","latitude":"-29.222689","uf":"RS","color":"red","cidade":"Farroupilha","name":"Farroupilha, RS <br> HFC"},{"longitude":"-51.206533","tecnologia":"HFC","latitude":"-30.031771","uf":"RS","color":"red","cidade":"Porto Alegre","name":"Porto Alegre, RS <br> HFC"},{"longitude":"-52.10705","tecnologia":"HFC","latitude":"-32.034875","uf":"RS","color":"red","cidade":"Rio Grande","name":"Rio Grande, RS <br> HFC"},{"longitude":"-51.144975","tecnologia":"HFC","latitude":"-29.827575","uf":"RS","color":"red","cidade":"Sapucaia do Sul","name":"Sapucaia do Sul, RS <br> HFC"},{"longitude":"-48.848675","tecnologia":"HFC","latitude":"-26.304497","uf":"SC","color":"red","cidade":"Joinville","name":"Joinville, SC <br> HFC"},{"longitude":"-47.333119","tecnologia":"HFC","latitude":"-22.73736","uf":"SP","color":"red","cidade":"Americana","name":"Americana, SP <br> HFC"},{"longitude":"-47.384235","tecnologia":"HFC","latitude":"-22.357238","uf":"SP","color":"red","cidade":"Araras","name":"Araras, SP <br> HFC"},{"longitude":"-46.556262","tecnologia":"HFC","latitude":"-23.117059","uf":"SP","color":"red","cidade":"Atibaia","name":"Atibaia, SP <br> HFC"},{"longitude":"-46.879042","tecnologia":"HFC","latitude":"-23.505689","uf":"SP","color":"red","cidade":"Barueri","name":"Barueri, SP <br> HFC"},{"longitude":"-47.06595","tecnologia":"HFC","latitude":"-22.905346","uf":"SP","color":"red","cidade":"Campinas","name":"Campinas, SP <br> HFC"},{"longitude":"-46.91902","tecnologia":"HFC","latitude":"-23.602177","uf":"SP","color":"red","cidade":"Cotia","name":"Cotia, SP <br> HFC"},{"longitude":"-46.62052","tecnologia":"HFC","latitude":"-23.681347","uf":"SP","color":"red","cidade":"Diadema","name":"Diadema, SP <br> HFC"},{"longitude":"-47.368153","tecnologia":"HFC","latitude":"-23.042822","uf":"SP","color":"red","cidade":"Elias Fausto","name":"Elias Fausto, SP <br> HFC"},{"longitude":"-46.533347","tecnologia":"HFC","latitude":"-23.453758","uf":"SP","color":"red","cidade":"Guarulhos","name":"Guarulhos, SP <br> HFC"},{"longitude":"-46.932747","tecnologia":"HFC","latitude":"-23.548774","uf":"SP","color":"red","cidade":"Itapevi","name":"Itapevi, SP <br> HFC"},{"longitude":"-47.292688","tecnologia":"HFC","latitude":"-23.254397","uf":"SP","color":"red","cidade":"Itu","name":"Itu, SP <br> HFC"},{"longitude":"-46.902314","tecnologia":"HFC","latitude":"-23.527537","uf":"SP","color":"red","cidade":"Jandira","name":"Jandira, SP <br> HFC"},{"longitude":"-47.312182","tecnologia":"HFC","latitude":"-22.945043","uf":"SP","color":"red","cidade":"Monte Mor","name":"Monte Mor, SP <br> HFC"},{"longitude":"-46.791555","tecnologia":"HFC","latitude":"-23.53239","uf":"SP","color":"red","cidade":"Osasco","name":"Osasco, SP <br> HFC"},{"longitude":"-47.647612","tecnologia":"HFC","latitude":"-22.733801","uf":"SP","color":"red","cidade":"Piracicaba","name":"Piracicaba, SP <br> HFC"},{"longitude":"-47.52512","tecnologia":"HFC","latitude":"-23.209318","uf":"SP","color":"red","cidade":"Porto Feliz","name":"Porto Feliz, SP <br> HFC"},{"longitude":"-47.531795","tecnologia":"HFC","latitude":"-23.010508","uf":"SP","color":"red","cidade":"Rafard","name":"Rafard, SP <br> HFC"},{"longitude":"-47.554632","tecnologia":"HFC","latitude":"-22.398378","uf":"SP","color":"red","cidade":"Rio Claro","name":"Rio Claro, SP <br> HFC"},{"longitude":"-47.293087","tecnologia":"HFC","latitude":"-23.199592","uf":"SP","color":"red","cidade":"Salto","name":"Salto, SP <br> HFC"},{"longitude":"-46.311181","tecnologia":"HFC","latitude":"-23.544828","uf":"SP","color":"red","cidade":"Suzano","name":"Suzano, SP <br> HFC"},{"longitude":"-47.022038","tecnologia":"HFC","latitude":"-23.599338","uf":"SP","color":"red","cidade":"Vargem Grande Paulista","name":"Vargem Grande Paulista, SP <br> HFC"},{"longitude":"-47.438753","tecnologia":"HFC","latitude":"-23.54459","uf":"SP","color":"red","cidade":"Votorantim","name":"Votorantim, SP <br> HFC"}]
