[{"uf":"MG","latitude":"-19.812646","tecnologia":"HFC REDE NEUTRA","cidade":"João Monlevade","longitude":"-43.173463","color":"violet","name":"João Monlevade, MG <br> HFC REDE NEUTRA"},{"uf":"PR","latitude":"-26.483868","tecnologia":"HFC REDE NEUTRA","cidade":"Palmas","longitude":"-51.988812","color":"violet","name":"Palmas, PR <br> HFC REDE NEUTRA"},{"uf":"PR","latitude":"-25.442171","tecnologia":"HFC REDE NEUTRA","cidade":"Piraquara","longitude":"-49.062411","color":"violet","name":"Piraquara, PR <br> HFC REDE NEUTRA"},{"uf":"MG","latitude":"-20.461819","tecnologia":"HFC REDE NEUTRA","cidade":"Formiga","longitude":"-45.426793","color":"violet","name":"Formiga, MG <br> HFC REDE NEUTRA"},{"uf":"MG","latitude":"-20.023728","tecnologia":"HFC REDE NEUTRA","cidade":"Lagoa da Prata","longitude":"-45.540149","color":"violet","name":"Lagoa da Prata, MG <br> HFC REDE NEUTRA"},{"uf":"MG","latitude":"-19.554318","tecnologia":"HFC REDE NEUTRA","cidade":"Matozinhos","longitude":"-44.086786","color":"violet","name":"Matozinhos, MG <br> HFC REDE NEUTRA"},{"uf":"MG","latitude":"-19.630811","tecnologia":"HFC REDE NEUTRA","cidade":"Pedro Leopoldo","longitude":"-44.038258","color":"violet","name":"Pedro Leopoldo, MG <br> HFC REDE NEUTRA"},{"uf":"PR","latitude":"-25.542748","tecnologia":"HFC REDE NEUTRA","cidade":"Foz do Iguaçu","longitude":"-54.582689","color":"violet","name":"Foz do Iguaçu, PR <br> HFC REDE NEUTRA"},{"uf":"PR","latitude":"-25.881672","tecnologia":"HFC REDE NEUTRA","cidade":"Guaratuba","longitude":"-48.575223","color":"violet","name":"Guaratuba, PR <br> HFC REDE NEUTRA"},{"uf":"PR","latitude":"-23.265941","tecnologia":"HFC REDE NEUTRA","cidade":"Ibiporã","longitude":"-51.052243","color":"violet","name":"Ibiporã, PR <br> HFC REDE NEUTRA"},{"uf":"PR","latitude":"-24.557891","tecnologia":"HFC REDE NEUTRA","cidade":"Marechal Cândido Rondon","longitude":"-54.056115","color":"violet","name":"Marechal Cândido Rondon, PR <br> HFC REDE NEUTRA"},{"uf":"PR","latitude":"-25.297665","tecnologia":"HFC REDE NEUTRA","cidade":"Medianeira","longitude":"-54.094308","color":"violet","name":"Medianeira, PR <br> HFC REDE NEUTRA"},{"uf":"PR","latitude":"-23.455534","tecnologia":"HFC REDE NEUTRA","cidade":"Paiçandu","longitude":"-52.046013","color":"violet","name":"Paiçandu, PR <br> HFC REDE NEUTRA"},{"uf":"PR","latitude":"-25.367317","tecnologia":"HFC REDE NEUTRA","cidade":"Quatro Barras","longitude":"-49.076306","color":"violet","name":"Quatro Barras, PR <br> HFC REDE NEUTRA"},{"uf":"PR","latitude":"-24.32452","tecnologia":"HFC REDE NEUTRA","cidade":"Telêmaco Borba","longitude":"-50.617585","color":"violet","name":"Telêmaco Borba, PR <br> HFC REDE NEUTRA"},{"uf":"PR","latitude":"-26.227319","tecnologia":"HFC REDE NEUTRA","cidade":"União da Vitória","longitude":"-51.087313","color":"violet","name":"União da Vitória, PR <br> HFC REDE NEUTRA"}]
