[{"longitude":"-36.661471","tecnologia":"GPON","latitude":"-9.754866","uf":"AL","color":"green","cidade":"Arapiraca","name":"Arapiraca, AL <br> GPON"},{"longitude":"-49.492667","tecnologia":"GPON","latitude":"-16.651708","uf":"GO","color":"green","cidade":"Trindade","name":"Trindade, GO <br> GPON"},{"longitude":"-46.943804","tecnologia":"GPON","latitude":"-19.590176","uf":"MG","color":"green","cidade":"Araxá","name":"Araxá, MG <br> GPON"},{"longitude":"-45.459818","tecnologia":"GPON","latitude":"-22.422481","uf":"MG","color":"green","cidade":"Itajubá","name":"Itajubá, MG <br> GPON"},{"longitude":"-43.304004","tecnologia":"GPON","latitude":"-22.158462","uf":"RJ","color":"green","cidade":"Paraíba Do Sul","name":"Paraíba Do Sul, RJ <br> GPON"},{"longitude":"-61.932152","tecnologia":"GPON","latitude":"-10.877741","uf":"RO","color":"green","cidade":"Ji-Paraná","name":"Ji-Paraná, RO <br> GPON"},{"longitude":"-51.80431","tecnologia":"GPON","latitude":"-30.848897","uf":"RS","color":"green","cidade":"Camaquã","name":"Camaquã, RS <br> GPON"},{"longitude":"-51.089776","tecnologia":"GPON","latitude":"-29.58356","uf":"RS","color":"green","cidade":"Dois Irmãos","name":"Dois Irmãos, RS <br> GPON"},{"longitude":"-52.198625","tecnologia":"GPON","latitude":"-28.449754","uf":"RS","color":"green","cidade":"Marau","name":"Marau, RS <br> GPON"},{"longitude":"-50.941791","tecnologia":"GPON","latitude":"-28.507868","uf":"RS","color":"green","cidade":"Vacaria","name":"Vacaria, RS <br> GPON"},{"longitude":"-49.308654","tecnologia":"GPON","latitude":"-28.713206","uf":"SC","color":"green","cidade":"Içara","name":"Içara, SC <br> GPON"},{"longitude":"-48.98632","tecnologia":"GPON","latitude":"-22.469433","uf":"SP","color":"green","cidade":"Agudos","name":"Agudos, SP <br> GPON"},{"longitude":"-47.085245","tecnologia":"GPON","latitude":"-21.77081","uf":"SP","color":"green","cidade":"Casa Branca","name":"Casa Branca, SP <br> GPON"},{"longitude":"-47.988211","tecnologia":"GPON","latitude":"-21.958358","uf":"SP","color":"green","cidade":"Ibaté","name":"Ibaté, SP <br> GPON"},{"longitude":"-46.985062","tecnologia":"GPON","latitude":"-22.70374","uf":"SP","color":"green","cidade":"Jaguariúna","name":"Jaguariúna, SP <br> GPON"},{"longitude":"-47.425572","tecnologia":"GPON","latitude":"-23.713941","uf":"SP","color":"green","cidade":"Piedade","name":"Piedade, SP <br> GPON"},{"longitude":"-47.248023","tecnologia":"GPON","latitude":"-21.823475","uf":"SP","color":"green","cidade":"Santa Cruz das Palmeiras","name":"Santa Cruz das Palmeiras, SP <br> GPON"},{"longitude":"-47.270344","tecnologia":"GPON","latitude":"-21.70292","uf":"SP","color":"green","cidade":"Tambaú","name":"Tambaú, SP <br> GPON"},{"longitude":"-48.204402","tecnologia":"GPON","latitude":"-7.192375","uf":"TO","color":"green","cidade":"Araguaína","name":"Araguaína, TO <br> GPON"},{"longitude":"-49.068046","tecnologia":"GPON","latitude":"-11.72794","uf":"TO","color":"green","cidade":"Gurupi","name":"Gurupi, TO <br> GPON"},{"longitude":"-46.73974","tecnologia":"GPON","latitude":"-23.360729","uf":"SP","color":"green","cidade":"Caieiras","name":"Caieiras, SP <br> GPON"},{"longitude":"-47.059262","tecnologia":"GPON","latitude":"-23.152635","uf":"SP","color":"green","cidade":"Itupeva","name":"Itupeva, SP <br> GPON"},{"longitude":"-47.184995","tecnologia":"GPON","latitude":"-23.539822","uf":"SP","color":"green","cidade":"Mairinque","name":"Mairinque, SP <br> GPON"}]
