[{"cidade":"Arapiraca","color":"green","tecnologia":"GPON","uf":"AL","latitude":"-9.754866","longitude":"-36.661471","name":"Arapiraca, AL <br> GPON"},{"cidade":"Trindade","color":"green","tecnologia":"GPON","uf":"GO","latitude":"-16.651708","longitude":"-49.492667","name":"Trindade, GO <br> GPON"},{"cidade":"Araxá","color":"green","tecnologia":"GPON","uf":"MG","latitude":"-19.590176","longitude":"-46.943804","name":"Araxá, MG <br> GPON"},{"cidade":"Itajubá","color":"green","tecnologia":"GPON","uf":"MG","latitude":"-22.422481","longitude":"-45.459818","name":"Itajubá, MG <br> GPON"},{"cidade":"Paraíba Do Sul","color":"green","tecnologia":"GPON","uf":"RJ","latitude":"-22.158462","longitude":"-43.304004","name":"Paraíba Do Sul, RJ <br> GPON"},{"cidade":"Ji-Paraná","color":"green","tecnologia":"GPON","uf":"RO","latitude":"-10.877741","longitude":"-61.932152","name":"Ji-Paraná, RO <br> GPON"},{"cidade":"Camaquã","color":"green","tecnologia":"GPON","uf":"RS","latitude":"-30.848897","longitude":"-51.80431","name":"Camaquã, RS <br> GPON"},{"cidade":"Dois Irmãos","color":"green","tecnologia":"GPON","uf":"RS","latitude":"-29.58356","longitude":"-51.089776","name":"Dois Irmãos, RS <br> GPON"},{"cidade":"Marau","color":"green","tecnologia":"GPON","uf":"RS","latitude":"-28.449754","longitude":"-52.198625","name":"Marau, RS <br> GPON"},{"cidade":"Vacaria","color":"green","tecnologia":"GPON","uf":"RS","latitude":"-28.507868","longitude":"-50.941791","name":"Vacaria, RS <br> GPON"},{"cidade":"Içara","color":"green","tecnologia":"GPON","uf":"SC","latitude":"-28.713206","longitude":"-49.308654","name":"Içara, SC <br> GPON"},{"cidade":"Agudos","color":"green","tecnologia":"GPON","uf":"SP","latitude":"-22.469433","longitude":"-48.98632","name":"Agudos, SP <br> GPON"},{"cidade":"Casa Branca","color":"green","tecnologia":"GPON","uf":"SP","latitude":"-21.77081","longitude":"-47.085245","name":"Casa Branca, SP <br> GPON"},{"cidade":"Ibaté","color":"green","tecnologia":"GPON","uf":"SP","latitude":"-21.958358","longitude":"-47.988211","name":"Ibaté, SP <br> GPON"},{"cidade":"Jaguariúna","color":"green","tecnologia":"GPON","uf":"SP","latitude":"-22.70374","longitude":"-46.985062","name":"Jaguariúna, SP <br> GPON"},{"cidade":"Piedade","color":"green","tecnologia":"GPON","uf":"SP","latitude":"-23.713941","longitude":"-47.425572","name":"Piedade, SP <br> GPON"},{"cidade":"Santa Cruz das Palmeiras","color":"green","tecnologia":"GPON","uf":"SP","latitude":"-21.823475","longitude":"-47.248023","name":"Santa Cruz das Palmeiras, SP <br> GPON"},{"cidade":"Tambaú","color":"green","tecnologia":"GPON","uf":"SP","latitude":"-21.70292","longitude":"-47.270344","name":"Tambaú, SP <br> GPON"},{"cidade":"Araguaína","color":"green","tecnologia":"GPON","uf":"TO","latitude":"-7.192375","longitude":"-48.204402","name":"Araguaína, TO <br> GPON"},{"cidade":"Gurupi","color":"green","tecnologia":"GPON","uf":"TO","latitude":"-11.72794","longitude":"-49.068046","name":"Gurupi, TO <br> GPON"},{"cidade":"Apucarana","color":"green","tecnologia":"GPON","uf":"PR","latitude":"-23.549961","longitude":"-51.463486","name":"Apucarana, PR <br> GPON"},{"cidade":"Guaramirim","color":"green","tecnologia":"GPON","uf":"SC","latitude":"-26.468753","longitude":"-49.002628","name":"Guaramirim, SC <br> GPON"},{"cidade":"Caieiras","color":"green","tecnologia":"GPON","uf":"SP","latitude":"-23.360729","longitude":"-46.73974","name":"Caieiras, SP <br> GPON"},{"cidade":"Itupeva","color":"green","tecnologia":"GPON","uf":"SP","latitude":"-23.152635","longitude":"-47.059262","name":"Itupeva, SP <br> GPON"},{"cidade":"Mairinque","color":"green","tecnologia":"GPON","uf":"SP","latitude":"-23.539822","longitude":"-47.184995","name":"Mairinque, SP <br> GPON"}]
