[
  {
    "longitude": "-43.173463",
    "name": "João Monlevade, MG <br> HFC REDE NEUTRA",
    "latitude": "-19.812646",
    "color": "violet"
  },
  {
    "longitude": "-51.988812",
    "name": "Palmas, PR <br> HFC REDE NEUTRA",
    "latitude": "-26.483868",
    "color": "violet"
  },
  {
    "longitude": "-49.062411",
    "name": "Piraquara, PR <br> HFC REDE NEUTRA",
    "latitude": "-25.442171",
    "color": "violet"
  },
  {
    "longitude": "-45.426793",
    "name": "Formiga, MG <br> HFC REDE NEUTRA",
    "latitude": "-20.461819",
    "color": "violet"
  },
  {
    "longitude": "-45.540149",
    "name": "Lagoa da Prata, MG <br> HFC REDE NEUTRA",
    "latitude": "-20.023728",
    "color": "violet"
  },
  {
    "longitude": "-44.086786",
    "name": "Matozinhos, MG <br> HFC REDE NEUTRA",
    "latitude": "-19.554318",
    "color": "violet"
  },
  {
    "longitude": "-44.038258",
    "name": "Pedro Leopoldo, MG <br> HFC REDE NEUTRA",
    "latitude": "-19.630811",
    "color": "violet"
  },
  {
    "longitude": "-54.582689",
    "name": "Foz do Iguaçu, PR <br> HFC REDE NEUTRA",
    "latitude": "-25.542748",
    "color": "violet"
  },
  {
    "longitude": "-48.575223",
    "name": "Guaratuba, PR <br> HFC REDE NEUTRA",
    "latitude": "-25.881672",
    "color": "violet"
  },
  {
    "longitude": "-51.052243",
    "name": "Ibiporã, PR <br> HFC REDE NEUTRA",
    "latitude": "-23.265941",
    "color": "violet"
  },
  {
    "longitude": "-54.056115",
    "name": "Marechal Cândido Rondon, PR <br> HFC REDE NEUTRA",
    "latitude": "-24.557891",
    "color": "violet"
  },
  {
    "longitude": "-54.094308",
    "name": "Medianeira, PR <br> HFC REDE NEUTRA",
    "latitude": "-25.297665",
    "color": "violet"
  },
  {
    "longitude": "-52.046013",
    "name": "Paiçandu, PR <br> HFC REDE NEUTRA",
    "latitude": "-23.455534",
    "color": "violet"
  },
  {
    "longitude": "-49.076306",
    "name": "Quatro Barras, PR <br> HFC REDE NEUTRA",
    "latitude": "-25.367317",
    "color": "violet"
  },
  {
    "longitude": "-50.617585",
    "name": "Telêmaco Borba, PR <br> HFC REDE NEUTRA",
    "latitude": "-24.32452",
    "color": "violet"
  },
  {
    "longitude": "-51.087313",
    "name": "União da Vitória, PR <br> HFC REDE NEUTRA",
    "latitude": "-26.227319",
    "color": "violet"
  }
]
