[{"longitude":"-36.661471","name":"Arapiraca, AL <br> GPON","cidade":"Arapiraca","latitude":"-9.754866","color":"green","tecnologia":"GPON","uf":"AL"},{"longitude":"-49.492667","name":"Trindade, GO <br> GPON","cidade":"Trindade","latitude":"-16.651708","color":"green","tecnologia":"GPON","uf":"GO"},{"longitude":"-46.943804","name":"Araxá, MG <br> GPON","cidade":"Araxá","latitude":"-19.590176","color":"green","tecnologia":"GPON","uf":"MG"},{"longitude":"-45.459818","name":"Itajubá, MG <br> GPON","cidade":"Itajubá","latitude":"-22.422481","color":"green","tecnologia":"GPON","uf":"MG"},{"longitude":"-43.304004","name":"Paraíba Do Sul, RJ <br> GPON","cidade":"Paraíba Do Sul","latitude":"-22.158462","color":"green","tecnologia":"GPON","uf":"RJ"},{"longitude":"-61.932152","name":"Ji-Paraná, RO <br> GPON","cidade":"Ji-Paraná","latitude":"-10.877741","color":"green","tecnologia":"GPON","uf":"RO"},{"longitude":"-51.80431","name":"Camaquã, RS <br> GPON","cidade":"Camaquã","latitude":"-30.848897","color":"green","tecnologia":"GPON","uf":"RS"},{"longitude":"-51.089776","name":"Dois Irmãos, RS <br> GPON","cidade":"Dois Irmãos","latitude":"-29.58356","color":"green","tecnologia":"GPON","uf":"RS"},{"longitude":"-52.198625","name":"Marau, RS <br> GPON","cidade":"Marau","latitude":"-28.449754","color":"green","tecnologia":"GPON","uf":"RS"},{"longitude":"-50.941791","name":"Vacaria, RS <br> GPON","cidade":"Vacaria","latitude":"-28.507868","color":"green","tecnologia":"GPON","uf":"RS"},{"longitude":"-49.308654","name":"Içara, SC <br> GPON","cidade":"Içara","latitude":"-28.713206","color":"green","tecnologia":"GPON","uf":"SC"},{"longitude":"-48.98632","name":"Agudos, SP <br> GPON","cidade":"Agudos","latitude":"-22.469433","color":"green","tecnologia":"GPON","uf":"SP"},{"longitude":"-47.085245","name":"Casa Branca, SP <br> GPON","cidade":"Casa Branca","latitude":"-21.77081","color":"green","tecnologia":"GPON","uf":"SP"},{"longitude":"-47.988211","name":"Ibaté, SP <br> GPON","cidade":"Ibaté","latitude":"-21.958358","color":"green","tecnologia":"GPON","uf":"SP"},{"longitude":"-46.985062","name":"Jaguariúna, SP <br> GPON","cidade":"Jaguariúna","latitude":"-22.70374","color":"green","tecnologia":"GPON","uf":"SP"},{"longitude":"-47.425572","name":"Piedade, SP <br> GPON","cidade":"Piedade","latitude":"-23.713941","color":"green","tecnologia":"GPON","uf":"SP"},{"longitude":"-47.248023","name":"Santa Cruz das Palmeiras, SP <br> GPON","cidade":"Santa Cruz das Palmeiras","latitude":"-21.823475","color":"green","tecnologia":"GPON","uf":"SP"},{"longitude":"-47.270344","name":"Tambaú, SP <br> GPON","cidade":"Tambaú","latitude":"-21.70292","color":"green","tecnologia":"GPON","uf":"SP"},{"longitude":"-48.204402","name":"Araguaína, TO <br> GPON","cidade":"Araguaína","latitude":"-7.192375","color":"green","tecnologia":"GPON","uf":"TO"},{"longitude":"-49.068046","name":"Gurupi, TO <br> GPON","cidade":"Gurupi","latitude":"-11.72794","color":"green","tecnologia":"GPON","uf":"TO"},{"longitude":"-51.463486","name":"Apucarana, PR <br> GPON","cidade":"Apucarana","latitude":"-23.549961","color":"green","tecnologia":"GPON","uf":"PR"},{"longitude":"-49.002628","name":"Guaramirim, SC <br> GPON","cidade":"Guaramirim","latitude":"-26.468753","color":"green","tecnologia":"GPON","uf":"SC"},{"longitude":"-46.73974","name":"Caieiras, SP <br> GPON","cidade":"Caieiras","latitude":"-23.360729","color":"green","tecnologia":"GPON","uf":"SP"},{"longitude":"-47.059262","name":"Itupeva, SP <br> GPON","cidade":"Itupeva","latitude":"-23.152635","color":"green","tecnologia":"GPON","uf":"SP"},{"longitude":"-47.184995","name":"Mairinque, SP <br> GPON","cidade":"Mairinque","latitude":"-23.539822","color":"green","tecnologia":"GPON","uf":"SP"}]
