[{"cidade":"Arapiraca","tecnologia":"GPON","longitude":"-36.661471","name":"Arapiraca, AL <br> GPON","latitude":"-9.754866","uf":"AL","color":"green"},{"cidade":"Trindade","tecnologia":"GPON","longitude":"-49.492667","name":"Trindade, GO <br> GPON","latitude":"-16.651708","uf":"GO","color":"green"},{"cidade":"Araxá","tecnologia":"GPON","longitude":"-46.943804","name":"Araxá, MG <br> GPON","latitude":"-19.590176","uf":"MG","color":"green"},{"cidade":"Itajubá","tecnologia":"GPON","longitude":"-45.459818","name":"Itajubá, MG <br> GPON","latitude":"-22.422481","uf":"MG","color":"green"},{"cidade":"Paraíba Do Sul","tecnologia":"GPON","longitude":"-43.304004","name":"Paraíba Do Sul, RJ <br> GPON","latitude":"-22.158462","uf":"RJ","color":"green"},{"cidade":"Ji-Paraná","tecnologia":"GPON","longitude":"-61.932152","name":"Ji-Paraná, RO <br> GPON","latitude":"-10.877741","uf":"RO","color":"green"},{"cidade":"Camaquã","tecnologia":"GPON","longitude":"-51.80431","name":"Camaquã, RS <br> GPON","latitude":"-30.848897","uf":"RS","color":"green"},{"cidade":"Dois Irmãos","tecnologia":"GPON","longitude":"-51.089776","name":"Dois Irmãos, RS <br> GPON","latitude":"-29.58356","uf":"RS","color":"green"},{"cidade":"Marau","tecnologia":"GPON","longitude":"-52.198625","name":"Marau, RS <br> GPON","latitude":"-28.449754","uf":"RS","color":"green"},{"cidade":"Vacaria","tecnologia":"GPON","longitude":"-50.941791","name":"Vacaria, RS <br> GPON","latitude":"-28.507868","uf":"RS","color":"green"},{"cidade":"Içara","tecnologia":"GPON","longitude":"-49.308654","name":"Içara, SC <br> GPON","latitude":"-28.713206","uf":"SC","color":"green"},{"cidade":"Agudos","tecnologia":"GPON","longitude":"-48.98632","name":"Agudos, SP <br> GPON","latitude":"-22.469433","uf":"SP","color":"green"},{"cidade":"Casa Branca","tecnologia":"GPON","longitude":"-47.085245","name":"Casa Branca, SP <br> GPON","latitude":"-21.77081","uf":"SP","color":"green"},{"cidade":"Ibaté","tecnologia":"GPON","longitude":"-47.988211","name":"Ibaté, SP <br> GPON","latitude":"-21.958358","uf":"SP","color":"green"},{"cidade":"Jaguariúna","tecnologia":"GPON","longitude":"-46.985062","name":"Jaguariúna, SP <br> GPON","latitude":"-22.70374","uf":"SP","color":"green"},{"cidade":"Piedade","tecnologia":"GPON","longitude":"-47.425572","name":"Piedade, SP <br> GPON","latitude":"-23.713941","uf":"SP","color":"green"},{"cidade":"Santa Cruz das Palmeiras","tecnologia":"GPON","longitude":"-47.248023","name":"Santa Cruz das Palmeiras, SP <br> GPON","latitude":"-21.823475","uf":"SP","color":"green"},{"cidade":"Tambaú","tecnologia":"GPON","longitude":"-47.270344","name":"Tambaú, SP <br> GPON","latitude":"-21.70292","uf":"SP","color":"green"},{"cidade":"Araguaína","tecnologia":"GPON","longitude":"-48.204402","name":"Araguaína, TO <br> GPON","latitude":"-7.192375","uf":"TO","color":"green"},{"cidade":"Gurupi","tecnologia":"GPON","longitude":"-49.068046","name":"Gurupi, TO <br> GPON","latitude":"-11.72794","uf":"TO","color":"green"},{"cidade":"Caieiras","tecnologia":"GPON","longitude":"-46.73974","name":"Caieiras, SP <br> GPON","latitude":"-23.360729","uf":"SP","color":"green"},{"cidade":"Itupeva","tecnologia":"GPON","longitude":"-47.059262","name":"Itupeva, SP <br> GPON","latitude":"-23.152635","uf":"SP","color":"green"},{"cidade":"Mairinque","tecnologia":"GPON","longitude":"-47.184995","name":"Mairinque, SP <br> GPON","latitude":"-23.539822","uf":"SP","color":"green"}]
