[{"uf":"AL","color":"green","cidade":"Arapiraca","name":"Arapiraca, AL <br> GPON","latitude":"-9.754866","longitude":"-36.661471","tecnologia":"GPON"},{"uf":"GO","color":"green","cidade":"Trindade","name":"Trindade, GO <br> GPON","latitude":"-16.651708","longitude":"-49.492667","tecnologia":"GPON"},{"uf":"MG","color":"green","cidade":"Araxá","name":"Araxá, MG <br> GPON","latitude":"-19.590176","longitude":"-46.943804","tecnologia":"GPON"},{"uf":"MG","color":"green","cidade":"Itajubá","name":"Itajubá, MG <br> GPON","latitude":"-22.422481","longitude":"-45.459818","tecnologia":"GPON"},{"uf":"RJ","color":"green","cidade":"Paraíba Do Sul","name":"Paraíba Do Sul, RJ <br> GPON","latitude":"-22.158462","longitude":"-43.304004","tecnologia":"GPON"},{"uf":"RO","color":"green","cidade":"Ji-Paraná","name":"Ji-Paraná, RO <br> GPON","latitude":"-10.877741","longitude":"-61.932152","tecnologia":"GPON"},{"uf":"RS","color":"green","cidade":"Camaquã","name":"Camaquã, RS <br> GPON","latitude":"-30.848897","longitude":"-51.80431","tecnologia":"GPON"},{"uf":"RS","color":"green","cidade":"Dois Irmãos","name":"Dois Irmãos, RS <br> GPON","latitude":"-29.58356","longitude":"-51.089776","tecnologia":"GPON"},{"uf":"RS","color":"green","cidade":"Marau","name":"Marau, RS <br> GPON","latitude":"-28.449754","longitude":"-52.198625","tecnologia":"GPON"},{"uf":"RS","color":"green","cidade":"Vacaria","name":"Vacaria, RS <br> GPON","latitude":"-28.507868","longitude":"-50.941791","tecnologia":"GPON"},{"uf":"SC","color":"green","cidade":"Içara","name":"Içara, SC <br> GPON","latitude":"-28.713206","longitude":"-49.308654","tecnologia":"GPON"},{"uf":"SP","color":"green","cidade":"Agudos","name":"Agudos, SP <br> GPON","latitude":"-22.469433","longitude":"-48.98632","tecnologia":"GPON"},{"uf":"SP","color":"green","cidade":"Casa Branca","name":"Casa Branca, SP <br> GPON","latitude":"-21.77081","longitude":"-47.085245","tecnologia":"GPON"},{"uf":"SP","color":"green","cidade":"Ibaté","name":"Ibaté, SP <br> GPON","latitude":"-21.958358","longitude":"-47.988211","tecnologia":"GPON"},{"uf":"SP","color":"green","cidade":"Jaguariúna","name":"Jaguariúna, SP <br> GPON","latitude":"-22.70374","longitude":"-46.985062","tecnologia":"GPON"},{"uf":"SP","color":"green","cidade":"Piedade","name":"Piedade, SP <br> GPON","latitude":"-23.713941","longitude":"-47.425572","tecnologia":"GPON"},{"uf":"SP","color":"green","cidade":"Santa Cruz das Palmeiras","name":"Santa Cruz das Palmeiras, SP <br> GPON","latitude":"-21.823475","longitude":"-47.248023","tecnologia":"GPON"},{"uf":"SP","color":"green","cidade":"Tambaú","name":"Tambaú, SP <br> GPON","latitude":"-21.70292","longitude":"-47.270344","tecnologia":"GPON"},{"uf":"TO","color":"green","cidade":"Araguaína","name":"Araguaína, TO <br> GPON","latitude":"-7.192375","longitude":"-48.204402","tecnologia":"GPON"},{"uf":"TO","color":"green","cidade":"Gurupi","name":"Gurupi, TO <br> GPON","latitude":"-11.72794","longitude":"-49.068046","tecnologia":"GPON"},{"uf":"AP","color":"green","cidade":"Macapá","name":"Macapá, AP <br> GPON","latitude":"0.034934","longitude":"-51.069395","tecnologia":"GPON"},{"uf":"AP","color":"green","cidade":"Santana","name":"Santana, AP <br> GPON","latitude":"-0.045434","longitude":"-51.172924","tecnologia":"GPON"},{"uf":"BA","color":"green","cidade":"Alagoinhas","name":"Alagoinhas, BA <br> GPON","latitude":"-12.133526","longitude":"-38.420772","tecnologia":"GPON"},{"uf":"BA","color":"green","cidade":"Barreiras","name":"Barreiras, BA <br> GPON","latitude":"-12.143864","longitude":"-44.996838","tecnologia":"GPON"},{"uf":"BA","color":"green","cidade":"Camaçari","name":"Camaçari, BA <br> GPON","latitude":"-12.699638","longitude":"-38.326265","tecnologia":"GPON"},{"uf":"BA","color":"green","cidade":"Eunápolis","name":"Eunápolis, BA <br> GPON","latitude":"-16.371498","longitude":"-39.582122","tecnologia":"GPON"},{"uf":"BA","color":"green","cidade":"Feira de Santana","name":"Feira de Santana, BA <br> GPON","latitude":"-12.266429","longitude":"-38.966293","tecnologia":"GPON"},{"uf":"BA","color":"green","cidade":"Ilhéus","name":"Ilhéus, BA <br> GPON","latitude":"-14.793045","longitude":"-39.04602","tecnologia":"GPON"},{"uf":"BA","color":"green","cidade":"Itabuna","name":"Itabuna, BA <br> GPON","latitude":"-14.787573","longitude":"-39.278056","tecnologia":"GPON"},{"uf":"BA","color":"green","cidade":"Jequié","name":"Jequié, BA <br> GPON","latitude":"-13.850888","longitude":"-40.087704","tecnologia":"GPON"},{"uf":"BA","color":"green","cidade":"Juazeiro","name":"Juazeiro, BA <br> GPON","latitude":"-9.416217","longitude":"-40.503251","tecnologia":"GPON"},{"uf":"BA","color":"green","cidade":"Mata de São João","name":"Mata de São João, BA <br> GPON","latitude":"-12.530685","longitude":"-38.300898","tecnologia":"GPON"},{"uf":"BA","color":"green","cidade":"Porto Seguro","name":"Porto Seguro, BA <br> GPON","latitude":"-16.443473","longitude":"-39.064251","tecnologia":"GPON"},{"uf":"BA","color":"green","cidade":"Teixeira de Freitas","name":"Teixeira de Freitas, BA <br> GPON","latitude":"-17.539915","longitude":"-39.739962","tecnologia":"GPON"},{"uf":"CE","color":"green","cidade":"Aquiraz","name":"Aquiraz, CE <br> GPON","latitude":"-3.899293","longitude":"-38.389563","tecnologia":"GPON"},{"uf":"CE","color":"green","cidade":"Eusébio","name":"Eusébio, CE <br> GPON","latitude":"-3.892501","longitude":"-38.455875","tecnologia":"GPON"},{"uf":"CE","color":"green","cidade":"Juazeiro do Norte","name":"Juazeiro do Norte, CE <br> GPON","latitude":"-7.196207","longitude":"-39.307593","tecnologia":"GPON"},{"uf":"CE","color":"green","cidade":"Sobral","name":"Sobral, CE <br> GPON","latitude":"-3.689133","longitude":"-40.34821","tecnologia":"GPON"},{"uf":"ES","color":"green","cidade":"Aracruz","name":"Aracruz, ES <br> GPON","latitude":"-19.820045","longitude":"-40.276441","tecnologia":"GPON"},{"uf":"ES","color":"green","cidade":"Colatina","name":"Colatina, ES <br> GPON","latitude":"-19.549316","longitude":"-40.626898","tecnologia":"GPON"},{"uf":"GO","color":"green","cidade":"Caldas Novas","name":"Caldas Novas, GO <br> GPON","latitude":"-17.74406","longitude":"-48.624579","tecnologia":"GPON"},{"uf":"GO","color":"green","cidade":"Formosa","name":"Formosa, GO <br> GPON","latitude":"-15.539991","longitude":"-47.336999","tecnologia":"GPON"},{"uf":"GO","color":"green","cidade":"Itumbiara","name":"Itumbiara, GO <br> GPON","latitude":"-18.409267","longitude":"-49.215845","tecnologia":"GPON"},{"uf":"GO","color":"green","cidade":"Jataí","name":"Jataí, GO <br> GPON","latitude":"-17.878383","longitude":"-51.720424","tecnologia":"GPON"},{"uf":"GO","color":"green","cidade":"Rio Verde","name":"Rio Verde, GO <br> GPON","latitude":"-17.792266","longitude":"-50.919195","tecnologia":"GPON"},{"uf":"GO","color":"green","cidade":"Santa Helena de Goiás","name":"Santa Helena de Goiás, GO <br> GPON","latitude":"-17.81152","longitude":"-50.597664","tecnologia":"GPON"},{"uf":"GO","color":"green","cidade":"Senador Canedo","name":"Senador Canedo, GO <br> GPON","latitude":"-16.708401","longitude":"-49.091398","tecnologia":"GPON"},{"uf":"GO","color":"green","cidade":"Valparaíso de Goiás","name":"Valparaíso de Goiás, GO <br> GPON","latitude":"-16.065078","longitude":"-47.975675","tecnologia":"GPON"},{"uf":"MA","color":"green","cidade":"Caxias","name":"Caxias, MA <br> GPON","latitude":"-4.865053","longitude":"-43.361749","tecnologia":"GPON"},{"uf":"MA","color":"green","cidade":"Imperatriz","name":"Imperatriz, MA <br> GPON","latitude":"-5.518471","longitude":"-47.477726","tecnologia":"GPON"},{"uf":"MA","color":"green","cidade":"Timon","name":"Timon, MA <br> GPON","latitude":"-5.097692","longitude":"-42.83292","tecnologia":"GPON"},{"uf":"MG","color":"green","cidade":"Araguari","name":"Araguari, MG <br> GPON","latitude":"-18.645575","longitude":"-48.193392","tecnologia":"GPON"},{"uf":"MG","color":"green","cidade":"Barbacena","name":"Barbacena, MG <br> GPON","latitude":"-21.221446","longitude":"-43.770266","tecnologia":"GPON"},{"uf":"MG","color":"green","cidade":"Cataguases","name":"Cataguases, MG <br> GPON","latitude":"-21.39239","longitude":"-42.689647","tecnologia":"GPON"},{"uf":"MG","color":"green","cidade":"Conselheiro Lafaiete","name":"Conselheiro Lafaiete, MG <br> GPON","latitude":"-20.663445","longitude":"-43.784609","tecnologia":"GPON"},{"uf":"MG","color":"green","cidade":"Coronel Fabriciano","name":"Coronel Fabriciano, MG <br> GPON","latitude":"-19.517879","longitude":"-42.627585","tecnologia":"GPON"},{"uf":"MG","color":"green","cidade":"Divinópolis","name":"Divinópolis, MG <br> GPON","latitude":"-20.144646","longitude":"-44.891223","tecnologia":"GPON"},{"uf":"MG","color":"green","cidade":"Itabira","name":"Itabira, MG <br> GPON","latitude":"-19.623936","longitude":"-43.23123","tecnologia":"GPON"},{"uf":"MG","color":"green","cidade":"Itaúna","name":"Itaúna, MG <br> GPON","latitude":"-20.081798","longitude":"-44.580112","tecnologia":"GPON"},{"uf":"MG","color":"green","cidade":"Ituiutaba","name":"Ituiutaba, MG <br> GPON","latitude":"-18.977191","longitude":"-49.463945","tecnologia":"GPON"},{"uf":"MG","color":"green","cidade":"Lagoa Santa","name":"Lagoa Santa, MG <br> GPON","latitude":"-19.63967","longitude":"-43.893216","tecnologia":"GPON"},{"uf":"MG","color":"green","cidade":"Lavras","name":"Lavras, MG <br> GPON","latitude":"-21.248002","longitude":"-45.000949","tecnologia":"GPON"},{"uf":"MG","color":"green","cidade":"Manhuaçu","name":"Manhuaçu, MG <br> GPON","latitude":"-20.257226","longitude":"-42.027987","tecnologia":"GPON"},{"uf":"MG","color":"green","cidade":"Montes Claros","name":"Montes Claros, MG <br> GPON","latitude":"-16.728177","longitude":"-43.857809","tecnologia":"GPON"},{"uf":"MG","color":"green","cidade":"Pará de Minas","name":"Pará de Minas, MG <br> GPON","latitude":"-19.853441","longitude":"-44.611355","tecnologia":"GPON"},{"uf":"MG","color":"green","cidade":"Patos de Minas","name":"Patos de Minas, MG <br> GPON","latitude":"-18.569938","longitude":"-46.501268","tecnologia":"GPON"},{"uf":"MG","color":"green","cidade":"Poços de Caldas","name":"Poços de Caldas, MG <br> GPON","latitude":"-21.779975","longitude":"-46.569184","tecnologia":"GPON"},{"uf":"MG","color":"green","cidade":"Pouso Alegre","name":"Pouso Alegre, MG <br> GPON","latitude":"-22.22659","longitude":"-45.938935","tecnologia":"GPON"},{"uf":"MG","color":"green","cidade":"Santa Luzia","name":"Santa Luzia, MG <br> GPON","latitude":"-19.754824","longitude":"-43.849658","tecnologia":"GPON"},{"uf":"MG","color":"green","cidade":"São João Del Rei","name":"São João Del Rei, MG <br> GPON","latitude":"-21.131054","longitude":"-44.252646","tecnologia":"GPON"},{"uf":"MG","color":"green","cidade":"Timóteo","name":"Timóteo, MG <br> GPON","latitude":"-19.581086","longitude":"-42.64713","tecnologia":"GPON"},{"uf":"MG","color":"green","cidade":"Três Corações","name":"Três Corações, MG <br> GPON","latitude":"-21.692091","longitude":"-45.251117","tecnologia":"GPON"},{"uf":"MG","color":"green","cidade":"Ubá","name":"Ubá, MG <br> GPON","latitude":"-21.120444","longitude":"-42.935931","tecnologia":"GPON"},{"uf":"MG","color":"green","cidade":"Vespasiano","name":"Vespasiano, MG <br> GPON","latitude":"-19.688326","longitude":"-43.9239","tecnologia":"GPON"},{"uf":"MG","color":"green","cidade":"Viçosa","name":"Viçosa, MG <br> GPON","latitude":"-20.755916","longitude":"-42.87417","tecnologia":"GPON"},{"uf":"MS","color":"green","cidade":"Naviraí","name":"Naviraí, MS <br> GPON","latitude":"-23.06181","longitude":"-54.199465","tecnologia":"GPON"},{"uf":"MS","color":"green","cidade":"Ponta Porã","name":"Ponta Porã, MS <br> GPON","latitude":"-22.529617","longitude":"-55.720326","tecnologia":"GPON"},{"uf":"MS","color":"green","cidade":"Três Lagoas","name":"Três Lagoas, MS <br> GPON","latitude":"-20.784853","longitude":"-51.700731","tecnologia":"GPON"},{"uf":"MT","color":"green","cidade":"Lucas do Rio Verde","name":"Lucas do Rio Verde, MT <br> GPON","latitude":"-13.058796","longitude":"-55.904202","tecnologia":"GPON"},{"uf":"MT","color":"green","cidade":"Nova Mutum","name":"Nova Mutum, MT <br> GPON","latitude":"-13.837389","longitude":"-56.074316","tecnologia":"GPON"},{"uf":"MT","color":"green","cidade":"Sinop","name":"Sinop, MT <br> GPON","latitude":"-11.86043","longitude":"-55.509062","tecnologia":"GPON"},{"uf":"MT","color":"green","cidade":"Sorriso","name":"Sorriso, MT <br> GPON","latitude":"-12.542527","longitude":"-55.721051","tecnologia":"GPON"},{"uf":"PA","color":"green","cidade":"Castanhal","name":"Castanhal, PA <br> GPON","latitude":"-1.297971","longitude":"-47.916742","tecnologia":"GPON"},{"uf":"PA","color":"green","cidade":"Marabá","name":"Marabá, PA <br> GPON","latitude":"-5.38075","longitude":"-49.132672","tecnologia":"GPON"},{"uf":"PA","color":"green","cidade":"Paragominas","name":"Paragominas, PA <br> GPON","latitude":"-3.002116","longitude":"-47.352692","tecnologia":"GPON"},{"uf":"PA","color":"green","cidade":"Parauapebas","name":"Parauapebas, PA <br> GPON","latitude":"-6.067812","longitude":"-49.903733","tecnologia":"GPON"},{"uf":"PE","color":"green","cidade":"Petrolina","name":"Petrolina, PE <br> GPON","latitude":"-9.388662","longitude":"-40.502731","tecnologia":"GPON"},{"uf":"PI","color":"green","cidade":"Parnaíba","name":"Parnaíba, PI <br> GPON","latitude":"-2.905847","longitude":"-41.775388","tecnologia":"GPON"},{"uf":"PR","color":"green","cidade":"Apucarana","name":"Apucarana, PR <br> GPON","latitude":"-23.549961","longitude":"-51.463486","tecnologia":"GPON"},{"uf":"PR","color":"green","cidade":"Cambé","name":"Cambé, PR <br> GPON","latitude":"-23.276575","longitude":"-51.279832","tecnologia":"GPON"},{"uf":"PR","color":"green","cidade":"Paranaguá","name":"Paranaguá, PR <br> GPON","latitude":"-25.516078","longitude":"-48.522528","tecnologia":"GPON"},{"uf":"PR","color":"green","cidade":"Rolândia","name":"Rolândia, PR <br> GPON","latitude":"-23.31012","longitude":"-51.365928","tecnologia":"GPON"},{"uf":"RJ","color":"green","cidade":"Armação Dos Búzios","name":"Armação Dos Búzios, RJ <br> GPON","latitude":"-22.752846","longitude":"-41.884559","tecnologia":"GPON"},{"uf":"RJ","color":"green","cidade":"Cabo Frio","name":"Cabo Frio, RJ <br> GPON","latitude":"-22.88943","longitude":"-42.028595","tecnologia":"GPON"},{"uf":"RJ","color":"green","cidade":"Itaguaí","name":"Itaguaí, RJ <br> GPON","latitude":"-22.863566","longitude":"-43.779821","tecnologia":"GPON"},{"uf":"RJ","color":"green","cidade":"Miguel Pereira","name":"Miguel Pereira, RJ <br> GPON","latitude":"-22.457242","longitude":"-43.480275","tecnologia":"GPON"},{"uf":"RJ","color":"green","cidade":"Nova Friburgo","name":"Nova Friburgo, RJ <br> GPON","latitude":"-22.293224","longitude":"-42.537692","tecnologia":"GPON"},{"uf":"RJ","color":"green","cidade":"São Pedro da Aldeia","name":"São Pedro da Aldeia, RJ <br> GPON","latitude":"-22.842859","longitude":"-42.102596","tecnologia":"GPON"},{"uf":"RJ","color":"green","cidade":"Três Rios","name":"Três Rios, RJ <br> GPON","latitude":"-22.11651","longitude":"-43.218533","tecnologia":"GPON"},{"uf":"RJ","color":"green","cidade":"Valença","name":"Valença, RJ <br> GPON","latitude":"-22.244496","longitude":"-43.71288","tecnologia":"GPON"},{"uf":"RJ","color":"green","cidade":"Vassouras","name":"Vassouras, RJ <br> GPON","latitude":"-22.405889","longitude":"-43.668555","tecnologia":"GPON"},{"uf":"RN","color":"green","cidade":"Mossoró","name":"Mossoró, RN <br> GPON","latitude":"-5.183737","longitude":"-37.347446","tecnologia":"GPON"},{"uf":"RO","color":"green","cidade":"Ariquemes","name":"Ariquemes, RO <br> GPON","latitude":"-9.905711","longitude":"-63.032516","tecnologia":"GPON"},{"uf":"RO","color":"green","cidade":"Cacoal","name":"Cacoal, RO <br> GPON","latitude":"-11.434271","longitude":"-61.456167","tecnologia":"GPON"},{"uf":"RO","color":"green","cidade":"Vilhena","name":"Vilhena, RO <br> GPON","latitude":"-12.750183","longitude":"-60.148847","tecnologia":"GPON"},{"uf":"RS","color":"green","cidade":"Alegrete","name":"Alegrete, RS <br> GPON","latitude":"-29.790166","longitude":"-55.794862","tecnologia":"GPON"},{"uf":"RS","color":"green","cidade":"Arroio do Meio","name":"Arroio do Meio, RS <br> GPON","latitude":"-29.401353","longitude":"-51.955735","tecnologia":"GPON"},{"uf":"RS","color":"green","cidade":"Cachoeira do Sul","name":"Cachoeira do Sul, RS <br> GPON","latitude":"-30.032988","longitude":"-52.892756","tecnologia":"GPON"},{"uf":"RS","color":"green","cidade":"Canela","name":"Canela, RS <br> GPON","latitude":"-29.355993","longitude":"-50.811921","tecnologia":"GPON"},{"uf":"RS","color":"green","cidade":"Carazinho","name":"Carazinho, RS <br> GPON","latitude":"-28.295844","longitude":"-52.79326","tecnologia":"GPON"},{"uf":"RS","color":"green","cidade":"Carlos Barbosa","name":"Carlos Barbosa, RS <br> GPON","latitude":"-29.296949","longitude":"-51.502847","tecnologia":"GPON"},{"uf":"RS","color":"green","cidade":"Charqueadas","name":"Charqueadas, RS <br> GPON","latitude":"-29.962478","longitude":"-51.628872","tecnologia":"GPON"},{"uf":"RS","color":"green","cidade":"Eldorado do Sul","name":"Eldorado do Sul, RS <br> GPON","latitude":"-30.084676","longitude":"-51.618702","tecnologia":"GPON"},{"uf":"RS","color":"green","cidade":"Encantado","name":"Encantado, RS <br> GPON","latitude":"-29.235141","longitude":"-51.870282","tecnologia":"GPON"},{"uf":"RS","color":"green","cidade":"Estrela","name":"Estrela, RS <br> GPON","latitude":"-29.500207","longitude":"-51.949508","tecnologia":"GPON"},{"uf":"RS","color":"green","cidade":"Frederico Westphalen","name":"Frederico Westphalen, RS <br> GPON","latitude":"-27.358644","longitude":"-53.395824","tecnologia":"GPON"},{"uf":"RS","color":"green","cidade":"Garibaldi","name":"Garibaldi, RS <br> GPON","latitude":"-29.258979","longitude":"-51.535179","tecnologia":"GPON"},{"uf":"RS","color":"green","cidade":"Gramado","name":"Gramado, RS <br> GPON","latitude":"-29.373351","longitude":"-50.876164","tecnologia":"GPON"},{"uf":"RS","color":"green","cidade":"Guaíba","name":"Guaíba, RS <br> GPON","latitude":"-30.108592","longitude":"-51.323314","tecnologia":"GPON"},{"uf":"RS","color":"green","cidade":"Igrejinha","name":"Igrejinha, RS <br> GPON","latitude":"-29.569318","longitude":"-50.791894","tecnologia":"GPON"},{"uf":"RS","color":"green","cidade":"Imbé","name":"Imbé, RS <br> GPON","latitude":"-29.975269","longitude":"-50.128068","tecnologia":"GPON"},{"uf":"RS","color":"green","cidade":"Itaqui","name":"Itaqui, RS <br> GPON","latitude":"-29.131051","longitude":"-56.551478","tecnologia":"GPON"},{"uf":"RS","color":"green","cidade":"Ivoti","name":"Ivoti, RS <br> GPON","latitude":"-29.599463","longitude":"-51.153326","tecnologia":"GPON"},{"uf":"RS","color":"green","cidade":"Montenegro","name":"Montenegro, RS <br> GPON","latitude":"-29.682414","longitude":"-51.467903","tecnologia":"GPON"},{"uf":"RS","color":"green","cidade":"Nova Petrópolis","name":"Nova Petrópolis, RS <br> GPON","latitude":"-29.374112","longitude":"-51.113552","tecnologia":"GPON"},{"uf":"RS","color":"green","cidade":"Osório","name":"Osório, RS <br> GPON","latitude":"-29.888089","longitude":"-50.266713","tecnologia":"GPON"},{"uf":"RS","color":"green","cidade":"Palmeira Das Missões","name":"Palmeira Das Missões, RS <br> GPON","latitude":"-27.900652","longitude":"-53.313378","tecnologia":"GPON"},{"uf":"RS","color":"green","cidade":"Panambi","name":"Panambi, RS <br> GPON","latitude":"-28.283328","longitude":"-53.502261","tecnologia":"GPON"},{"uf":"RS","color":"green","cidade":"Parobé","name":"Parobé, RS <br> GPON","latitude":"-29.624257","longitude":"-50.83118","tecnologia":"GPON"},{"uf":"RS","color":"green","cidade":"Rio Pardo","name":"Rio Pardo, RS <br> GPON","latitude":"-29.98803","longitude":"-52.37113","tecnologia":"GPON"},{"uf":"RS","color":"green","cidade":"Rosário do Sul","name":"Rosário do Sul, RS <br> GPON","latitude":"-30.251483","longitude":"-54.922106","tecnologia":"GPON"},{"uf":"RS","color":"green","cidade":"Santa Rosa","name":"Santa Rosa, RS <br> GPON","latitude":"-27.8702","longitude":"-54.479629","tecnologia":"GPON"},{"uf":"RS","color":"green","cidade":"Santana do Livramento","name":"Santana do Livramento, RS <br> GPON","latitude":"-30.88772","longitude":"-55.531467","tecnologia":"GPON"},{"uf":"RS","color":"green","cidade":"Santo Ângelo","name":"Santo Ângelo, RS <br> GPON","latitude":"-28.300128","longitude":"-54.266781","tecnologia":"GPON"},{"uf":"RS","color":"green","cidade":"São Borja","name":"São Borja, RS <br> GPON","latitude":"-28.657828","longitude":"-56.003603","tecnologia":"GPON"},{"uf":"RS","color":"green","cidade":"São Gabriel","name":"São Gabriel, RS <br> GPON","latitude":"-30.333688","longitude":"-54.321657","tecnologia":"GPON"},{"uf":"RS","color":"green","cidade":"São Lourenço do Sul","name":"São Lourenço do Sul, RS <br> GPON","latitude":"-31.356374","longitude":"-51.971531","tecnologia":"GPON"},{"uf":"RS","color":"green","cidade":"São Luiz Gonzaga","name":"São Luiz Gonzaga, RS <br> GPON","latitude":"-28.412032","longitude":"-54.955942","tecnologia":"GPON"},{"uf":"RS","color":"green","cidade":"Taquara","name":"Taquara, RS <br> GPON","latitude":"-29.650471","longitude":"-50.775278","tecnologia":"GPON"},{"uf":"RS","color":"green","cidade":"Teutônia","name":"Teutônia, RS <br> GPON","latitude":"-29.448205","longitude":"-51.804375","tecnologia":"GPON"},{"uf":"RS","color":"green","cidade":"Torres","name":"Torres, RS <br> GPON","latitude":"-29.333438","longitude":"-49.733289","tecnologia":"GPON"},{"uf":"RS","color":"green","cidade":"Tramandaí","name":"Tramandaí, RS <br> GPON","latitude":"-29.98414","longitude":"-50.132187","tecnologia":"GPON"},{"uf":"RS","color":"green","cidade":"Três Coroas","name":"Três Coroas, RS <br> GPON","latitude":"-29.513719","longitude":"-50.773869","tecnologia":"GPON"},{"uf":"RS","color":"green","cidade":"Venâncio Aires","name":"Venâncio Aires, RS <br> GPON","latitude":"-29.614306","longitude":"-52.193159","tecnologia":"GPON"},{"uf":"RS","color":"green","cidade":"Vera Cruz","name":"Vera Cruz, RS <br> GPON","latitude":"-29.718435","longitude":"-52.515176","tecnologia":"GPON"},{"uf":"RS","color":"green","cidade":"Veranópolis","name":"Veranópolis, RS <br> GPON","latitude":"-28.931197","longitude":"-51.551614","tecnologia":"GPON"},{"uf":"SC","color":"green","cidade":"Araranguá","name":"Araranguá, SC <br> GPON","latitude":"-28.935615","longitude":"-49.491809","tecnologia":"GPON"},{"uf":"SC","color":"green","cidade":"Biguaçu","name":"Biguaçu, SC <br> GPON","latitude":"-27.496004","longitude":"-48.65979","tecnologia":"GPON"},{"uf":"SC","color":"green","cidade":"Caçador","name":"Caçador, SC <br> GPON","latitude":"-26.77567","longitude":"-51.012004","tecnologia":"GPON"},{"uf":"SC","color":"green","cidade":"Camboriú","name":"Camboriú, SC <br> GPON","latitude":"-27.024078","longitude":"-48.650338","tecnologia":"GPON"},{"uf":"SC","color":"green","cidade":"Concórdia","name":"Concórdia, SC <br> GPON","latitude":"-27.233461","longitude":"-52.025962","tecnologia":"GPON"},{"uf":"SC","color":"green","cidade":"Fraiburgo","name":"Fraiburgo, SC <br> GPON","latitude":"-27.023288","longitude":"-50.919978","tecnologia":"GPON"},{"uf":"SC","color":"green","cidade":"Gaspar","name":"Gaspar, SC <br> GPON","latitude":"-26.933597","longitude":"-48.953428","tecnologia":"GPON"},{"uf":"SC","color":"green","cidade":"Guaramirim","name":"Guaramirim, SC <br> GPON","latitude":"-26.468753","longitude":"-49.002628","tecnologia":"GPON"},{"uf":"SC","color":"green","cidade":"Indaial","name":"Indaial, SC <br> GPON","latitude":"-26.899247","longitude":"-49.235417","tecnologia":"GPON"},{"uf":"SC","color":"green","cidade":"Jaraguá do Sul","name":"Jaraguá do Sul, SC <br> GPON","latitude":"-26.485083","longitude":"-49.07125","tecnologia":"GPON"},{"uf":"SC","color":"green","cidade":"Joaçaba","name":"Joaçaba, SC <br> GPON","latitude":"-27.172105","longitude":"-51.510788","tecnologia":"GPON"},{"uf":"SC","color":"green","cidade":"Lages","name":"Lages, SC <br> GPON","latitude":"-27.814966","longitude":"-50.325862","tecnologia":"GPON"},{"uf":"SC","color":"green","cidade":"Mafra","name":"Mafra, SC <br> GPON","latitude":"-26.115935","longitude":"-49.808624","tecnologia":"GPON"},{"uf":"SC","color":"green","cidade":"Rio do Sul","name":"Rio do Sul, SC <br> GPON","latitude":"-27.215596","longitude":"-49.643016","tecnologia":"GPON"},{"uf":"SC","color":"green","cidade":"Rio Negrinho","name":"Rio Negrinho, SC <br> GPON","latitude":"-26.259075","longitude":"-49.517746","tecnologia":"GPON"},{"uf":"SC","color":"green","cidade":"São Bento do Sul","name":"São Bento do Sul, SC <br> GPON","latitude":"-26.249542","longitude":"-49.383077","tecnologia":"GPON"},{"uf":"SC","color":"green","cidade":"São Francisco do Sul","name":"São Francisco do Sul, SC <br> GPON","latitude":"-26.257917","longitude":"-48.634372","tecnologia":"GPON"},{"uf":"SC","color":"green","cidade":"Timbó","name":"Timbó, SC <br> GPON","latitude":"-26.82464","longitude":"-49.269039","tecnologia":"GPON"},{"uf":"SC","color":"green","cidade":"Tubarão","name":"Tubarão, SC <br> GPON","latitude":"-28.47131","longitude":"-49.014371","tecnologia":"GPON"},{"uf":"SC","color":"green","cidade":"Videira","name":"Videira, SC <br> GPON","latitude":"-27.008624","longitude":"-51.154274","tecnologia":"GPON"},{"uf":"SC","color":"green","cidade":"Xanxerê","name":"Xanxerê, SC <br> GPON","latitude":"-26.874694","longitude":"-52.403579","tecnologia":"GPON"},{"uf":"SC","color":"green","cidade":"Xaxim","name":"Xaxim, SC <br> GPON","latitude":"-26.959643","longitude":"-52.537446","tecnologia":"GPON"},{"uf":"SP","color":"green","cidade":"Adamantina","name":"Adamantina, SP <br> GPON","latitude":"-21.682012","longitude":"-51.073695","tecnologia":"GPON"},{"uf":"SP","color":"green","cidade":"Alumínio","name":"Alumínio, SP <br> GPON","latitude":"-23.530553","longitude":"-47.254571","tecnologia":"GPON"},{"uf":"SP","color":"green","cidade":"Álvares Machado","name":"Álvares Machado, SP <br> GPON","latitude":"-22.076415","longitude":"-51.47224","tecnologia":"GPON"},{"uf":"SP","color":"green","cidade":"Américo Brasiliense","name":"Américo Brasiliense, SP <br> GPON","latitude":"-21.728771","longitude":"-48.11467","tecnologia":"GPON"},{"uf":"SP","color":"green","cidade":"Amparo","name":"Amparo, SP <br> GPON","latitude":"-22.70879","longitude":"-46.772022","tecnologia":"GPON"},{"uf":"SP","color":"green","cidade":"Andradina","name":"Andradina, SP <br> GPON","latitude":"-20.894761","longitude":"-51.378568","tecnologia":"GPON"},{"uf":"SP","color":"green","cidade":"Arujá","name":"Arujá, SP <br> GPON","latitude":"-23.396476","longitude":"-46.319983","tecnologia":"GPON"},{"uf":"SP","color":"green","cidade":"Avaré","name":"Avaré, SP <br> GPON","latitude":"-23.106732","longitude":"-48.925052","tecnologia":"GPON"},{"uf":"SP","color":"green","cidade":"Bady Bassitt","name":"Bady Bassitt, SP <br> GPON","latitude":"-20.919689","longitude":"-49.4385","tecnologia":"GPON"},{"uf":"SP","color":"green","cidade":"Barretos","name":"Barretos, SP <br> GPON","latitude":"-20.553146","longitude":"-48.569832","tecnologia":"GPON"},{"uf":"SP","color":"green","cidade":"Barrinha","name":"Barrinha, SP <br> GPON","latitude":"-21.186374","longitude":"-48.163614","tecnologia":"GPON"},{"uf":"SP","color":"green","cidade":"Batatais","name":"Batatais, SP <br> GPON","latitude":"-20.892867","longitude":"-47.592149","tecnologia":"GPON"},{"uf":"SP","color":"green","cidade":"Bebedouro","name":"Bebedouro, SP <br> GPON","latitude":"-20.949077","longitude":"-48.479083","tecnologia":"GPON"},{"uf":"SP","color":"green","cidade":"Birigui","name":"Birigui, SP <br> GPON","latitude":"-21.291034","longitude":"-50.343162","tecnologia":"GPON"},{"uf":"SP","color":"green","cidade":"Boituva","name":"Boituva, SP <br> GPON","latitude":"-23.285531","longitude":"-47.678574","tecnologia":"GPON"},{"uf":"SP","color":"green","cidade":"Cabreúva","name":"Cabreúva, SP <br> GPON","latitude":"-23.30533","longitude":"-47.136251","tecnologia":"GPON"},{"uf":"SP","color":"green","cidade":"Caieiras","name":"Caieiras, SP <br> GPON","latitude":"-23.360729","longitude":"-46.73974","tecnologia":"GPON"},{"uf":"SP","color":"green","cidade":"Cajamar","name":"Cajamar, SP <br> GPON","latitude":"-23.355014","longitude":"-46.878146","tecnologia":"GPON"},{"uf":"SP","color":"green","cidade":"Campo Limpo Paulista","name":"Campo Limpo Paulista, SP <br> GPON","latitude":"-23.207791","longitude":"-46.788919","tecnologia":"GPON"},{"uf":"SP","color":"green","cidade":"Campos do Jordão","name":"Campos do Jordão, SP <br> GPON","latitude":"-22.729618","longitude":"-45.583337","tecnologia":"GPON"},{"uf":"SP","color":"green","cidade":"Caraguatatuba","name":"Caraguatatuba, SP <br> GPON","latitude":"-23.612535","longitude":"-45.412533","tecnologia":"GPON"},{"uf":"SP","color":"green","cidade":"Catanduva","name":"Catanduva, SP <br> GPON","latitude":"-21.131381","longitude":"-48.977015","tecnologia":"GPON"},{"uf":"SP","color":"green","cidade":"Cerquilho","name":"Cerquilho, SP <br> GPON","latitude":"-23.166487","longitude":"-47.745862","tecnologia":"GPON"},{"uf":"SP","color":"green","cidade":"Cordeirópolis","name":"Cordeirópolis, SP <br> GPON","latitude":"-22.477778","longitude":"-47.451886","tecnologia":"GPON"},{"uf":"SP","color":"green","cidade":"Cravinhos","name":"Cravinhos, SP <br> GPON","latitude":"-21.337959","longitude":"-47.732427","tecnologia":"GPON"},{"uf":"SP","color":"green","cidade":"Descalvado","name":"Descalvado, SP <br> GPON","latitude":"-21.900211","longitude":"-47.618105","tecnologia":"GPON"},{"uf":"SP","color":"green","cidade":"Dracena","name":"Dracena, SP <br> GPON","latitude":"-21.484311","longitude":"-51.535034","tecnologia":"GPON"},{"uf":"SP","color":"green","cidade":"Espírito Santo do Pinhal","name":"Espírito Santo do Pinhal, SP <br> GPON","latitude":"-22.190871","longitude":"-46.74767","tecnologia":"GPON"},{"uf":"SP","color":"green","cidade":"Fernandópolis","name":"Fernandópolis, SP <br> GPON","latitude":"-20.280556","longitude":"-50.247115","tecnologia":"GPON"},{"uf":"SP","color":"green","cidade":"Garça","name":"Garça, SP <br> GPON","latitude":"-22.212516","longitude":"-49.654596","tecnologia":"GPON"},{"uf":"SP","color":"green","cidade":"Guaíra","name":"Guaíra, SP <br> GPON","latitude":"-20.319591","longitude":"-48.31197","tecnologia":"GPON"},{"uf":"SP","color":"green","cidade":"Guapiaçu","name":"Guapiaçu, SP <br> GPON","latitude":"-20.795885","longitude":"-49.217201","tecnologia":"GPON"},{"uf":"SP","color":"green","cidade":"Guararapes","name":"Guararapes, SP <br> GPON","latitude":"-21.254431","longitude":"-50.645338","tecnologia":"GPON"},{"uf":"SP","color":"green","cidade":"Ibiúna","name":"Ibiúna, SP <br> GPON","latitude":"-23.65961","longitude":"-47.223037","tecnologia":"GPON"},{"uf":"SP","color":"green","cidade":"Iperó","name":"Iperó, SP <br> GPON","latitude":"-23.351296","longitude":"-47.692717","tecnologia":"GPON"},{"uf":"SP","color":"green","cidade":"Itanhaém","name":"Itanhaém, SP <br> GPON","latitude":"-24.173633","longitude":"-46.787986","tecnologia":"GPON"},{"uf":"SP","color":"green","cidade":"Itapeva","name":"Itapeva, SP <br> GPON","latitude":"-23.978823","longitude":"-48.876433","tecnologia":"GPON"},{"uf":"SP","color":"green","cidade":"Itapira","name":"Itapira, SP <br> GPON","latitude":"-22.435731","longitude":"-46.822434","tecnologia":"GPON"},{"uf":"SP","color":"green","cidade":"Itaquaquecetuba","name":"Itaquaquecetuba, SP <br> GPON","latitude":"-23.483481","longitude":"-46.345724","tecnologia":"GPON"},{"uf":"SP","color":"green","cidade":"Itatiba","name":"Itatiba, SP <br> GPON","latitude":"-23.003497","longitude":"-46.846353","tecnologia":"GPON"},{"uf":"SP","color":"green","cidade":"Itupeva","name":"Itupeva, SP <br> GPON","latitude":"-23.152635","longitude":"-47.059262","tecnologia":"GPON"},{"uf":"SP","color":"green","cidade":"Ituverava","name":"Ituverava, SP <br> GPON","latitude":"-20.335465","longitude":"-47.790207","tecnologia":"GPON"},{"uf":"SP","color":"green","cidade":"Jaboticabal","name":"Jaboticabal, SP <br> GPON","latitude":"-21.252037","longitude":"-48.325223","tecnologia":"GPON"},{"uf":"SP","color":"green","cidade":"Jales","name":"Jales, SP <br> GPON","latitude":"-20.267227","longitude":"-50.549442","tecnologia":"GPON"},{"uf":"SP","color":"green","cidade":"Jardinópolis","name":"Jardinópolis, SP <br> GPON","latitude":"-21.017612","longitude":"-47.760583","tecnologia":"GPON"},{"uf":"SP","color":"green","cidade":"Jarinu","name":"Jarinu, SP <br> GPON","latitude":"-23.103855","longitude":"-46.728015","tecnologia":"GPON"},{"uf":"SP","color":"green","cidade":"José Bonifácio","name":"José Bonifácio, SP <br> GPON","latitude":"-21.055062","longitude":"-49.689233","tecnologia":"GPON"},{"uf":"SP","color":"green","cidade":"Laranjal Paulista","name":"Laranjal Paulista, SP <br> GPON","latitude":"-23.050564","longitude":"-47.837549","tecnologia":"GPON"},{"uf":"SP","color":"green","cidade":"Leme","name":"Leme, SP <br> GPON","latitude":"-22.180857","longitude":"-47.384109","tecnologia":"GPON"},{"uf":"SP","color":"green","cidade":"Lençóis Paulista","name":"Lençóis Paulista, SP <br> GPON","latitude":"-22.602693","longitude":"-48.803683","tecnologia":"GPON"},{"uf":"SP","color":"green","cidade":"Lins","name":"Lins, SP <br> GPON","latitude":"-21.67182","longitude":"-49.752555","tecnologia":"GPON"},{"uf":"SP","color":"green","cidade":"Louveira","name":"Louveira, SP <br> GPON","latitude":"-23.085572","longitude":"-46.948369","tecnologia":"GPON"},{"uf":"SP","color":"green","cidade":"Mairinque","name":"Mairinque, SP <br> GPON","latitude":"-23.539822","longitude":"-47.184995","tecnologia":"GPON"},{"uf":"SP","color":"green","cidade":"Matão","name":"Matão, SP <br> GPON","latitude":"-21.602511","longitude":"-48.363968","tecnologia":"GPON"},{"uf":"SP","color":"green","cidade":"Mirandópolis","name":"Mirandópolis, SP <br> GPON","latitude":"-21.131345","longitude":"-51.1035","tecnologia":"GPON"},{"uf":"SP","color":"green","cidade":"Mirassol","name":"Mirassol, SP <br> GPON","latitude":"-20.816874","longitude":"-49.52061","tecnologia":"GPON"},{"uf":"SP","color":"green","cidade":"Mococa","name":"Mococa, SP <br> GPON","latitude":"-21.464731","longitude":"-47.002405","tecnologia":"GPON"},{"uf":"SP","color":"green","cidade":"Mongaguá","name":"Mongaguá, SP <br> GPON","latitude":"-24.080901","longitude":"-46.626526","tecnologia":"GPON"},{"uf":"SP","color":"green","cidade":"Monte Alto","name":"Monte Alto, SP <br> GPON","latitude":"-21.265545","longitude":"-48.497066","tecnologia":"GPON"},{"uf":"SP","color":"green","cidade":"Morungaba","name":"Morungaba, SP <br> GPON","latitude":"-22.881071","longitude":"-46.789601","tecnologia":"GPON"},{"uf":"SP","color":"green","cidade":"Orlândia","name":"Orlândia, SP <br> GPON","latitude":"-20.716925","longitude":"-47.885205","tecnologia":"GPON"},{"uf":"SP","color":"green","cidade":"Ourinhos","name":"Ourinhos, SP <br> GPON","latitude":"-22.979695","longitude":"-49.869702","tecnologia":"GPON"},{"uf":"SP","color":"green","cidade":"Pedreira","name":"Pedreira, SP <br> GPON","latitude":"-22.741347","longitude":"-46.894846","tecnologia":"GPON"},{"uf":"SP","color":"green","cidade":"Penápolis","name":"Penápolis, SP <br> GPON","latitude":"-21.414765","longitude":"-50.076855","tecnologia":"GPON"},{"uf":"SP","color":"green","cidade":"Peruíbe","name":"Peruíbe, SP <br> GPON","latitude":"-24.311974","longitude":"-47.0012","tecnologia":"GPON"},{"uf":"SP","color":"green","cidade":"Piracaia","name":"Piracaia, SP <br> GPON","latitude":"-23.052545","longitude":"-46.359374","tecnologia":"GPON"},{"uf":"SP","color":"green","cidade":"Pirassununga","name":"Pirassununga, SP <br> GPON","latitude":"-21.995982","longitude":"-47.425746","tecnologia":"GPON"},{"uf":"SP","color":"green","cidade":"Pontal","name":"Pontal, SP <br> GPON","latitude":"-21.021565","longitude":"-48.042261","tecnologia":"GPON"},{"uf":"SP","color":"green","cidade":"Porto Ferreira","name":"Porto Ferreira, SP <br> GPON","latitude":"-21.849814","longitude":"-47.487034","tecnologia":"GPON"},{"uf":"SP","color":"green","cidade":"Potirendaba","name":"Potirendaba, SP <br> GPON","latitude":"-21.042789","longitude":"-49.381509","tecnologia":"GPON"},{"uf":"SP","color":"green","cidade":"Presidente Bernardes","name":"Presidente Bernardes, SP <br> GPON","latitude":"-22.008198","longitude":"-51.556507","tecnologia":"GPON"},{"uf":"SP","color":"green","cidade":"Promissão","name":"Promissão, SP <br> GPON","latitude":"-21.535572","longitude":"-49.85989","tecnologia":"GPON"},{"uf":"SP","color":"green","cidade":"Registro","name":"Registro, SP <br> GPON","latitude":"-24.497942","longitude":"-47.844895","tecnologia":"GPON"},{"uf":"SP","color":"green","cidade":"Ribeirão Pires","name":"Ribeirão Pires, SP <br> GPON","latitude":"-23.706669","longitude":"-46.405805","tecnologia":"GPON"},{"uf":"SP","color":"green","cidade":"Santa Cruz do Rio Pardo","name":"Santa Cruz do Rio Pardo, SP <br> GPON","latitude":"-22.89875","longitude":"-49.635444","tecnologia":"GPON"},{"uf":"SP","color":"green","cidade":"Santa Gertrudes","name":"Santa Gertrudes, SP <br> GPON","latitude":"-22.457229","longitude":"-47.52716","tecnologia":"GPON"},{"uf":"SP","color":"green","cidade":"Santa Isabel","name":"Santa Isabel, SP <br> GPON","latitude":"-23.317194","longitude":"-46.223668","tecnologia":"GPON"},{"uf":"SP","color":"green","cidade":"Santa Rosa de Viterbo","name":"Santa Rosa de Viterbo, SP <br> GPON","latitude":"-21.477568","longitude":"-47.362213","tecnologia":"GPON"},{"uf":"SP","color":"green","cidade":"São João da Boa Vista","name":"São João da Boa Vista, SP <br> GPON","latitude":"-21.970747","longitude":"-46.794356","tecnologia":"GPON"},{"uf":"SP","color":"green","cidade":"São Joaquim da Barra","name":"São Joaquim da Barra, SP <br> GPON","latitude":"-20.581158","longitude":"-47.859316","tecnologia":"GPON"},{"uf":"SP","color":"green","cidade":"São José do Rio Pardo","name":"São José do Rio Pardo, SP <br> GPON","latitude":"-21.595288","longitude":"-46.887303","tecnologia":"GPON"},{"uf":"SP","color":"green","cidade":"São Roque","name":"São Roque, SP <br> GPON","latitude":"-23.522598","longitude":"-47.13567","tecnologia":"GPON"},{"uf":"SP","color":"green","cidade":"São Sebastião","name":"São Sebastião, SP <br> GPON","latitude":"-23.795059","longitude":"-45.414314","tecnologia":"GPON"},{"uf":"SP","color":"green","cidade":"Serra Negra","name":"Serra Negra, SP <br> GPON","latitude":"-22.613941","longitude":"-46.703271","tecnologia":"GPON"},{"uf":"SP","color":"green","cidade":"Serrana","name":"Serrana, SP <br> GPON","latitude":"-21.204336","longitude":"-47.595239","tecnologia":"GPON"},{"uf":"SP","color":"green","cidade":"Tatuí","name":"Tatuí, SP <br> GPON","latitude":"-23.348731","longitude":"-47.84612","tecnologia":"GPON"},{"uf":"SP","color":"green","cidade":"Tremembé","name":"Tremembé, SP <br> GPON","latitude":"-22.95714","longitude":"-45.547526","tecnologia":"GPON"},{"uf":"SP","color":"green","cidade":"Ubatuba","name":"Ubatuba, SP <br> GPON","latitude":"-23.433162","longitude":"-45.083415","tecnologia":"GPON"},{"uf":"SP","color":"green","cidade":"Valparaíso","name":"Valparaíso, SP <br> GPON","latitude":"-21.222929","longitude":"-50.869874","tecnologia":"GPON"},{"uf":"SP","color":"green","cidade":"Várzea Paulista","name":"Várzea Paulista, SP <br> GPON","latitude":"-23.213582","longitude":"-46.823444","tecnologia":"GPON"},{"uf":"SP","color":"green","cidade":"Votuporanga","name":"Votuporanga, SP <br> GPON","latitude":"-20.423659","longitude":"-49.978112","tecnologia":"GPON"},{"uf":"TO","color":"green","cidade":"Paraíso do Tocantins","name":"Paraíso do Tocantins, TO <br> GPON","latitude":"-10.174998","longitude":"-48.882269","tecnologia":"GPON"}]
