[
  {
    "longitude": "-36.661471",
    "name": "Arapiraca, AL <br> GPON",
    "latitude": "-9.754866",
    "color": "green"
  },
  {
    "longitude": "-49.492667",
    "name": "Trindade, GO <br> GPON",
    "latitude": "-16.651708",
    "color": "green"
  },
  {
    "longitude": "-46.943804",
    "name": "Araxá, MG <br> GPON",
    "latitude": "-19.590176",
    "color": "green"
  },
  {
    "longitude": "-45.459818",
    "name": "Itajubá, MG <br> GPON",
    "latitude": "-22.422481",
    "color": "green"
  },
  {
    "longitude": "-43.304004",
    "name": "Paraíba Do Sul, RJ <br> GPON",
    "latitude": "-22.158462",
    "color": "green"
  },
  {
    "longitude": "-61.932152",
    "name": "Ji-Paraná, RO <br> GPON",
    "latitude": "-10.877741",
    "color": "green"
  },
  {
    "longitude": "-51.80431",
    "name": "Camaquã, RS <br> GPON",
    "latitude": "-30.848897",
    "color": "green"
  },
  {
    "longitude": "-51.089776",
    "name": "Dois Irmãos, RS <br> GPON",
    "latitude": "-29.58356",
    "color": "green"
  },
  {
    "longitude": "-52.198625",
    "name": "Marau, RS <br> GPON",
    "latitude": "-28.449754",
    "color": "green"
  },
  {
    "longitude": "-50.941791",
    "name": "Vacaria, RS <br> GPON",
    "latitude": "-28.507868",
    "color": "green"
  },
  {
    "longitude": "-49.308654",
    "name": "Içara, SC <br> GPON",
    "latitude": "-28.713206",
    "color": "green"
  },
  {
    "longitude": "-48.98632",
    "name": "Agudos, SP <br> GPON",
    "latitude": "-22.469433",
    "color": "green"
  },
  {
    "longitude": "-47.085245",
    "name": "Casa Branca, SP <br> GPON",
    "latitude": "-21.77081",
    "color": "green"
  },
  {
    "longitude": "-47.988211",
    "name": "Ibaté, SP <br> GPON",
    "latitude": "-21.958358",
    "color": "green"
  },
  {
    "longitude": "-46.985062",
    "name": "Jaguariúna, SP <br> GPON",
    "latitude": "-22.70374",
    "color": "green"
  },
  {
    "longitude": "-47.425572",
    "name": "Piedade, SP <br> GPON",
    "latitude": "-23.713941",
    "color": "green"
  },
  {
    "longitude": "-47.248023",
    "name": "Santa Cruz das Palmeiras, SP <br> GPON",
    "latitude": "-21.823475",
    "color": "green"
  },
  {
    "longitude": "-47.270344",
    "name": "Tambaú, SP <br> GPON",
    "latitude": "-21.70292",
    "color": "green"
  },
  {
    "longitude": "-48.204402",
    "name": "Araguaína, TO <br> GPON",
    "latitude": "-7.192375",
    "color": "green"
  },
  {
    "longitude": "-49.068046",
    "name": "Gurupi, TO <br> GPON",
    "latitude": "-11.72794",
    "color": "green"
  },
  {
    "longitude": "-51.069395",
    "name": "Macapá, AP <br> GPON",
    "latitude": "0.034934",
    "color": "green"
  },
  {
    "longitude": "-51.172924",
    "name": "Santana, AP <br> GPON",
    "latitude": "-0.045434",
    "color": "green"
  },
  {
    "longitude": "-38.420772",
    "name": "Alagoinhas, BA <br> GPON",
    "latitude": "-12.133526",
    "color": "green"
  },
  {
    "longitude": "-44.996838",
    "name": "Barreiras, BA <br> GPON",
    "latitude": "-12.143864",
    "color": "green"
  },
  {
    "longitude": "-38.326265",
    "name": "Camaçari, BA <br> GPON",
    "latitude": "-12.699638",
    "color": "green"
  },
  {
    "longitude": "-39.582122",
    "name": "Eunápolis, BA <br> GPON",
    "latitude": "-16.371498",
    "color": "green"
  },
  {
    "longitude": "-38.966293",
    "name": "Feira de Santana, BA <br> GPON",
    "latitude": "-12.266429",
    "color": "green"
  },
  {
    "longitude": "-39.04602",
    "name": "Ilhéus, BA <br> GPON",
    "latitude": "-14.793045",
    "color": "green"
  },
  {
    "longitude": "-39.278056",
    "name": "Itabuna, BA <br> GPON",
    "latitude": "-14.787573",
    "color": "green"
  },
  {
    "longitude": "-40.087704",
    "name": "Jequié, BA <br> GPON",
    "latitude": "-13.850888",
    "color": "green"
  },
  {
    "longitude": "-40.503251",
    "name": "Juazeiro, BA <br> GPON",
    "latitude": "-9.416217",
    "color": "green"
  },
  {
    "longitude": "-38.300898",
    "name": "Mata de São João, BA <br> GPON",
    "latitude": "-12.530685",
    "color": "green"
  },
  {
    "longitude": "-39.064251",
    "name": "Porto Seguro, BA <br> GPON",
    "latitude": "-16.443473",
    "color": "green"
  },
  {
    "longitude": "-39.739962",
    "name": "Teixeira de Freitas, BA <br> GPON",
    "latitude": "-17.539915",
    "color": "green"
  },
  {
    "longitude": "-38.389563",
    "name": "Aquiraz, CE <br> GPON",
    "latitude": "-3.899293",
    "color": "green"
  },
  {
    "longitude": "-38.455875",
    "name": "Eusébio, CE <br> GPON",
    "latitude": "-3.892501",
    "color": "green"
  },
  {
    "longitude": "-39.307593",
    "name": "Juazeiro do Norte, CE <br> GPON",
    "latitude": "-7.196207",
    "color": "green"
  },
  {
    "longitude": "-40.34821",
    "name": "Sobral, CE <br> GPON",
    "latitude": "-3.689133",
    "color": "green"
  },
  {
    "longitude": "-40.276441",
    "name": "Aracruz, ES <br> GPON",
    "latitude": "-19.820045",
    "color": "green"
  },
  {
    "longitude": "-40.626898",
    "name": "Colatina, ES <br> GPON",
    "latitude": "-19.549316",
    "color": "green"
  },
  {
    "longitude": "-48.624579",
    "name": "Caldas Novas, GO <br> GPON",
    "latitude": "-17.74406",
    "color": "green"
  },
  {
    "longitude": "-47.336999",
    "name": "Formosa, GO <br> GPON",
    "latitude": "-15.539991",
    "color": "green"
  },
  {
    "longitude": "-49.215845",
    "name": "Itumbiara, GO <br> GPON",
    "latitude": "-18.409267",
    "color": "green"
  },
  {
    "longitude": "-51.720424",
    "name": "Jataí, GO <br> GPON",
    "latitude": "-17.878383",
    "color": "green"
  },
  {
    "longitude": "-50.919195",
    "name": "Rio Verde, GO <br> GPON",
    "latitude": "-17.792266",
    "color": "green"
  },
  {
    "longitude": "-50.597664",
    "name": "Santa Helena de Goiás, GO <br> GPON",
    "latitude": "-17.81152",
    "color": "green"
  },
  {
    "longitude": "-49.091398",
    "name": "Senador Canedo, GO <br> GPON",
    "latitude": "-16.708401",
    "color": "green"
  },
  {
    "longitude": "-47.975675",
    "name": "Valparaíso de Goiás, GO <br> GPON",
    "latitude": "-16.065078",
    "color": "green"
  },
  {
    "longitude": "-43.361749",
    "name": "Caxias, MA <br> GPON",
    "latitude": "-4.865053",
    "color": "green"
  },
  {
    "longitude": "-47.477726",
    "name": "Imperatriz, MA <br> GPON",
    "latitude": "-5.518471",
    "color": "green"
  },
  {
    "longitude": "-42.83292",
    "name": "Timon, MA <br> GPON",
    "latitude": "-5.097692",
    "color": "green"
  },
  {
    "longitude": "-48.193392",
    "name": "Araguari, MG <br> GPON",
    "latitude": "-18.645575",
    "color": "green"
  },
  {
    "longitude": "-43.770266",
    "name": "Barbacena, MG <br> GPON",
    "latitude": "-21.221446",
    "color": "green"
  },
  {
    "longitude": "-42.689647",
    "name": "Cataguases, MG <br> GPON",
    "latitude": "-21.39239",
    "color": "green"
  },
  {
    "longitude": "-43.784609",
    "name": "Conselheiro Lafaiete, MG <br> GPON",
    "latitude": "-20.663445",
    "color": "green"
  },
  {
    "longitude": "-42.627585",
    "name": "Coronel Fabriciano, MG <br> GPON",
    "latitude": "-19.517879",
    "color": "green"
  },
  {
    "longitude": "-44.891223",
    "name": "Divinópolis, MG <br> GPON",
    "latitude": "-20.144646",
    "color": "green"
  },
  {
    "longitude": "-43.23123",
    "name": "Itabira, MG <br> GPON",
    "latitude": "-19.623936",
    "color": "green"
  },
  {
    "longitude": "-44.580112",
    "name": "Itaúna, MG <br> GPON",
    "latitude": "-20.081798",
    "color": "green"
  },
  {
    "longitude": "-49.463945",
    "name": "Ituiutaba, MG <br> GPON",
    "latitude": "-18.977191",
    "color": "green"
  },
  {
    "longitude": "-43.893216",
    "name": "Lagoa Santa, MG <br> GPON",
    "latitude": "-19.63967",
    "color": "green"
  },
  {
    "longitude": "-45.000949",
    "name": "Lavras, MG <br> GPON",
    "latitude": "-21.248002",
    "color": "green"
  },
  {
    "longitude": "-42.027987",
    "name": "Manhuaçu, MG <br> GPON",
    "latitude": "-20.257226",
    "color": "green"
  },
  {
    "longitude": "-43.857809",
    "name": "Montes Claros, MG <br> GPON",
    "latitude": "-16.728177",
    "color": "green"
  },
  {
    "longitude": "-44.611355",
    "name": "Pará de Minas, MG <br> GPON",
    "latitude": "-19.853441",
    "color": "green"
  },
  {
    "longitude": "-46.501268",
    "name": "Patos de Minas, MG <br> GPON",
    "latitude": "-18.569938",
    "color": "green"
  },
  {
    "longitude": "-46.569184",
    "name": "Poços de Caldas, MG <br> GPON",
    "latitude": "-21.779975",
    "color": "green"
  },
  {
    "longitude": "-45.938935",
    "name": "Pouso Alegre, MG <br> GPON",
    "latitude": "-22.22659",
    "color": "green"
  },
  {
    "longitude": "-43.849658",
    "name": "Santa Luzia, MG <br> GPON",
    "latitude": "-19.754824",
    "color": "green"
  },
  {
    "longitude": "-44.252646",
    "name": "São João Del Rei, MG <br> GPON",
    "latitude": "-21.131054",
    "color": "green"
  },
  {
    "longitude": "-42.64713",
    "name": "Timóteo, MG <br> GPON",
    "latitude": "-19.581086",
    "color": "green"
  },
  {
    "longitude": "-45.251117",
    "name": "Três Corações, MG <br> GPON",
    "latitude": "-21.692091",
    "color": "green"
  },
  {
    "longitude": "-42.935931",
    "name": "Ubá, MG <br> GPON",
    "latitude": "-21.120444",
    "color": "green"
  },
  {
    "longitude": "-43.9239",
    "name": "Vespasiano, MG <br> GPON",
    "latitude": "-19.688326",
    "color": "green"
  },
  {
    "longitude": "-42.87417",
    "name": "Viçosa, MG <br> GPON",
    "latitude": "-20.755916",
    "color": "green"
  },
  {
    "longitude": "-55.720326",
    "name": "Ponta Porã, MS <br> GPON",
    "latitude": "-22.529617",
    "color": "green"
  },
  {
    "longitude": "-51.700731",
    "name": "Três Lagoas, MS <br> GPON",
    "latitude": "-20.784853",
    "color": "green"
  },
  {
    "longitude": "-55.904202",
    "name": "Lucas do Rio Verde, MT <br> GPON",
    "latitude": "-13.058796",
    "color": "green"
  },
  {
    "longitude": "-56.074316",
    "name": "Nova Mutum, MT <br> GPON",
    "latitude": "-13.837389",
    "color": "green"
  },
  {
    "longitude": "-55.509062",
    "name": "Sinop, MT <br> GPON",
    "latitude": "-11.86043",
    "color": "green"
  },
  {
    "longitude": "-55.721051",
    "name": "Sorriso, MT <br> GPON",
    "latitude": "-12.542527",
    "color": "green"
  },
  {
    "longitude": "-47.916742",
    "name": "Castanhal, PA <br> GPON",
    "latitude": "-1.297971",
    "color": "green"
  },
  {
    "longitude": "-49.132672",
    "name": "Marabá, PA <br> GPON",
    "latitude": "-5.38075",
    "color": "green"
  },
  {
    "longitude": "-47.352692",
    "name": "Paragominas, PA <br> GPON",
    "latitude": "-3.002116",
    "color": "green"
  },
  {
    "longitude": "-49.903733",
    "name": "Parauapebas, PA <br> GPON",
    "latitude": "-6.067812",
    "color": "green"
  },
  {
    "longitude": "-40.502731",
    "name": "Petrolina, PE <br> GPON",
    "latitude": "-9.388662",
    "color": "green"
  },
  {
    "longitude": "-41.775388",
    "name": "Parnaíba, PI <br> GPON",
    "latitude": "-2.905847",
    "color": "green"
  },
  {
    "longitude": "-51.463486",
    "name": "Apucarana, PR <br> GPON",
    "latitude": "-23.549961",
    "color": "green"
  },
  {
    "longitude": "-51.279832",
    "name": "Cambé, PR <br> GPON",
    "latitude": "-23.276575",
    "color": "green"
  },
  {
    "longitude": "-48.522528",
    "name": "Paranaguá, PR <br> GPON",
    "latitude": "-25.516078",
    "color": "green"
  },
  {
    "longitude": "-51.365928",
    "name": "Rolândia, PR <br> GPON",
    "latitude": "-23.31012",
    "color": "green"
  },
  {
    "longitude": "-41.884559",
    "name": "Armação Dos Búzios, RJ <br> GPON",
    "latitude": "-22.752846",
    "color": "green"
  },
  {
    "longitude": "-42.028595",
    "name": "Cabo Frio, RJ <br> GPON",
    "latitude": "-22.88943",
    "color": "green"
  },
  {
    "longitude": "-43.779821",
    "name": "Itaguaí, RJ <br> GPON",
    "latitude": "-22.863566",
    "color": "green"
  },
  {
    "longitude": "-43.480275",
    "name": "Miguel Pereira, RJ <br> GPON",
    "latitude": "-22.457242",
    "color": "green"
  },
  {
    "longitude": "-42.537692",
    "name": "Nova Friburgo, RJ <br> GPON",
    "latitude": "-22.293224",
    "color": "green"
  },
  {
    "longitude": "-42.102596",
    "name": "São Pedro da Aldeia, RJ <br> GPON",
    "latitude": "-22.842859",
    "color": "green"
  },
  {
    "longitude": "-43.218533",
    "name": "Três Rios, RJ <br> GPON",
    "latitude": "-22.11651",
    "color": "green"
  },
  {
    "longitude": "-43.71288",
    "name": "Valença, RJ <br> GPON",
    "latitude": "-22.244496",
    "color": "green"
  },
  {
    "longitude": "-43.668555",
    "name": "Vassouras, RJ <br> GPON",
    "latitude": "-22.405889",
    "color": "green"
  },
  {
    "longitude": "-37.347446",
    "name": "Mossoró, RN <br> GPON",
    "latitude": "-5.183737",
    "color": "green"
  },
  {
    "longitude": "-63.032516",
    "name": "Ariquemes, RO <br> GPON",
    "latitude": "-9.905711",
    "color": "green"
  },
  {
    "longitude": "-61.456167",
    "name": "Cacoal, RO <br> GPON",
    "latitude": "-11.434271",
    "color": "green"
  },
  {
    "longitude": "-60.148847",
    "name": "Vilhena, RO <br> GPON",
    "latitude": "-12.750183",
    "color": "green"
  },
  {
    "longitude": "-55.794862",
    "name": "Alegrete, RS <br> GPON",
    "latitude": "-29.790166",
    "color": "green"
  },
  {
    "longitude": "-51.955735",
    "name": "Arroio do Meio, RS <br> GPON",
    "latitude": "-29.401353",
    "color": "green"
  },
  {
    "longitude": "-52.892756",
    "name": "Cachoeira do Sul, RS <br> GPON",
    "latitude": "-30.032988",
    "color": "green"
  },
  {
    "longitude": "-50.811921",
    "name": "Canela, RS <br> GPON",
    "latitude": "-29.355993",
    "color": "green"
  },
  {
    "longitude": "-52.79326",
    "name": "Carazinho, RS <br> GPON",
    "latitude": "-28.295844",
    "color": "green"
  },
  {
    "longitude": "-51.502847",
    "name": "Carlos Barbosa, RS <br> GPON",
    "latitude": "-29.296949",
    "color": "green"
  },
  {
    "longitude": "-51.628872",
    "name": "Charqueadas, RS <br> GPON",
    "latitude": "-29.962478",
    "color": "green"
  },
  {
    "longitude": "-51.618702",
    "name": "Eldorado do Sul, RS <br> GPON",
    "latitude": "-30.084676",
    "color": "green"
  },
  {
    "longitude": "-51.870282",
    "name": "Encantado, RS <br> GPON",
    "latitude": "-29.235141",
    "color": "green"
  },
  {
    "longitude": "-51.949508",
    "name": "Estrela, RS <br> GPON",
    "latitude": "-29.500207",
    "color": "green"
  },
  {
    "longitude": "-53.395824",
    "name": "Frederico Westphalen, RS <br> GPON",
    "latitude": "-27.358644",
    "color": "green"
  },
  {
    "longitude": "-51.535179",
    "name": "Garibaldi, RS <br> GPON",
    "latitude": "-29.258979",
    "color": "green"
  },
  {
    "longitude": "-50.876164",
    "name": "Gramado, RS <br> GPON",
    "latitude": "-29.373351",
    "color": "green"
  },
  {
    "longitude": "-51.323314",
    "name": "Guaíba, RS <br> GPON",
    "latitude": "-30.108592",
    "color": "green"
  },
  {
    "longitude": "-50.791894",
    "name": "Igrejinha, RS <br> GPON",
    "latitude": "-29.569318",
    "color": "green"
  },
  {
    "longitude": "-50.128068",
    "name": "Imbé, RS <br> GPON",
    "latitude": "-29.975269",
    "color": "green"
  },
  {
    "longitude": "-56.551478",
    "name": "Itaqui, RS <br> GPON",
    "latitude": "-29.131051",
    "color": "green"
  },
  {
    "longitude": "-51.153326",
    "name": "Ivoti, RS <br> GPON",
    "latitude": "-29.599463",
    "color": "green"
  },
  {
    "longitude": "-51.467903",
    "name": "Montenegro, RS <br> GPON",
    "latitude": "-29.682414",
    "color": "green"
  },
  {
    "longitude": "-51.113552",
    "name": "Nova Petrópolis, RS <br> GPON",
    "latitude": "-29.374112",
    "color": "green"
  },
  {
    "longitude": "-50.266713",
    "name": "Osório, RS <br> GPON",
    "latitude": "-29.888089",
    "color": "green"
  },
  {
    "longitude": "-53.313378",
    "name": "Palmeira Das Missões, RS <br> GPON",
    "latitude": "-27.900652",
    "color": "green"
  },
  {
    "longitude": "-53.502261",
    "name": "Panambi, RS <br> GPON",
    "latitude": "-28.283328",
    "color": "green"
  },
  {
    "longitude": "-50.83118",
    "name": "Parobé, RS <br> GPON",
    "latitude": "-29.624257",
    "color": "green"
  },
  {
    "longitude": "-52.37113",
    "name": "Rio Pardo, RS <br> GPON",
    "latitude": "-29.98803",
    "color": "green"
  },
  {
    "longitude": "-54.922106",
    "name": "Rosário do Sul, RS <br> GPON",
    "latitude": "-30.251483",
    "color": "green"
  },
  {
    "longitude": "-54.479629",
    "name": "Santa Rosa, RS <br> GPON",
    "latitude": "-27.8702",
    "color": "green"
  },
  {
    "longitude": "-55.531467",
    "name": "Santana do Livramento, RS <br> GPON",
    "latitude": "-30.88772",
    "color": "green"
  },
  {
    "longitude": "-54.266781",
    "name": "Santo Ângelo, RS <br> GPON",
    "latitude": "-28.300128",
    "color": "green"
  },
  {
    "longitude": "-56.003603",
    "name": "São Borja, RS <br> GPON",
    "latitude": "-28.657828",
    "color": "green"
  },
  {
    "longitude": "-54.321657",
    "name": "São Gabriel, RS <br> GPON",
    "latitude": "-30.333688",
    "color": "green"
  },
  {
    "longitude": "-51.971531",
    "name": "São Lourenço do Sul, RS <br> GPON",
    "latitude": "-31.356374",
    "color": "green"
  },
  {
    "longitude": "-54.955942",
    "name": "São Luiz Gonzaga, RS <br> GPON",
    "latitude": "-28.412032",
    "color": "green"
  },
  {
    "longitude": "-50.775278",
    "name": "Taquara, RS <br> GPON",
    "latitude": "-29.650471",
    "color": "green"
  },
  {
    "longitude": "-51.804375",
    "name": "Teutônia, RS <br> GPON",
    "latitude": "-29.448205",
    "color": "green"
  },
  {
    "longitude": "-49.733289",
    "name": "Torres, RS <br> GPON",
    "latitude": "-29.333438",
    "color": "green"
  },
  {
    "longitude": "-50.132187",
    "name": "Tramandaí, RS <br> GPON",
    "latitude": "-29.98414",
    "color": "green"
  },
  {
    "longitude": "-50.773869",
    "name": "Três Coroas, RS <br> GPON",
    "latitude": "-29.513719",
    "color": "green"
  },
  {
    "longitude": "-52.193159",
    "name": "Venâncio Aires, RS <br> GPON",
    "latitude": "-29.614306",
    "color": "green"
  },
  {
    "longitude": "-52.515176",
    "name": "Vera Cruz, RS <br> GPON",
    "latitude": "-29.718435",
    "color": "green"
  },
  {
    "longitude": "-51.551614",
    "name": "Veranópolis, RS <br> GPON",
    "latitude": "-28.931197",
    "color": "green"
  },
  {
    "longitude": "-49.491809",
    "name": "Araranguá, SC <br> GPON",
    "latitude": "-28.935615",
    "color": "green"
  },
  {
    "longitude": "-48.65979",
    "name": "Biguaçu, SC <br> GPON",
    "latitude": "-27.496004",
    "color": "green"
  },
  {
    "longitude": "-51.012004",
    "name": "Caçador, SC <br> GPON",
    "latitude": "-26.77567",
    "color": "green"
  },
  {
    "longitude": "-48.650338",
    "name": "Camboriú, SC <br> GPON",
    "latitude": "-27.024078",
    "color": "green"
  },
  {
    "longitude": "-52.025962",
    "name": "Concórdia, SC <br> GPON",
    "latitude": "-27.233461",
    "color": "green"
  },
  {
    "longitude": "-50.919978",
    "name": "Fraiburgo, SC <br> GPON",
    "latitude": "-27.023288",
    "color": "green"
  },
  {
    "longitude": "-48.953428",
    "name": "Gaspar, SC <br> GPON",
    "latitude": "-26.933597",
    "color": "green"
  },
  {
    "longitude": "-49.002628",
    "name": "Guaramirim, SC <br> GPON",
    "latitude": "-26.468753",
    "color": "green"
  },
  {
    "longitude": "-49.235417",
    "name": "Indaial, SC <br> GPON",
    "latitude": "-26.899247",
    "color": "green"
  },
  {
    "longitude": "-49.07125",
    "name": "Jaraguá do Sul, SC <br> GPON",
    "latitude": "-26.485083",
    "color": "green"
  },
  {
    "longitude": "-51.510788",
    "name": "Joaçaba, SC <br> GPON",
    "latitude": "-27.172105",
    "color": "green"
  },
  {
    "longitude": "-50.325862",
    "name": "Lages, SC <br> GPON",
    "latitude": "-27.814966",
    "color": "green"
  },
  {
    "longitude": "-49.808624",
    "name": "Mafra, SC <br> GPON",
    "latitude": "-26.115935",
    "color": "green"
  },
  {
    "longitude": "-49.643016",
    "name": "Rio do Sul, SC <br> GPON",
    "latitude": "-27.215596",
    "color": "green"
  },
  {
    "longitude": "-49.517746",
    "name": "Rio Negrinho, SC <br> GPON",
    "latitude": "-26.259075",
    "color": "green"
  },
  {
    "longitude": "-49.383077",
    "name": "São Bento do Sul, SC <br> GPON",
    "latitude": "-26.249542",
    "color": "green"
  },
  {
    "longitude": "-48.634372",
    "name": "São Francisco do Sul, SC <br> GPON",
    "latitude": "-26.257917",
    "color": "green"
  },
  {
    "longitude": "-49.269039",
    "name": "Timbó, SC <br> GPON",
    "latitude": "-26.82464",
    "color": "green"
  },
  {
    "longitude": "-49.014371",
    "name": "Tubarão, SC <br> GPON",
    "latitude": "-28.47131",
    "color": "green"
  },
  {
    "longitude": "-51.154274",
    "name": "Videira, SC <br> GPON",
    "latitude": "-27.008624",
    "color": "green"
  },
  {
    "longitude": "-52.403579",
    "name": "Xanxerê, SC <br> GPON",
    "latitude": "-26.874694",
    "color": "green"
  },
  {
    "longitude": "-52.537446",
    "name": "Xaxim, SC <br> GPON",
    "latitude": "-26.959643",
    "color": "green"
  },
  {
    "longitude": "-51.073695",
    "name": "Adamantina, SP <br> GPON",
    "latitude": "-21.682012",
    "color": "green"
  },
  {
    "longitude": "-47.254571",
    "name": "Alumínio, SP <br> GPON",
    "latitude": "-23.530553",
    "color": "green"
  },
  {
    "longitude": "-51.47224",
    "name": "Álvares Machado, SP <br> GPON",
    "latitude": "-22.076415",
    "color": "green"
  },
  {
    "longitude": "-48.11467",
    "name": "Américo Brasiliense, SP <br> GPON",
    "latitude": "-21.728771",
    "color": "green"
  },
  {
    "longitude": "-46.772022",
    "name": "Amparo, SP <br> GPON",
    "latitude": "-22.70879",
    "color": "green"
  },
  {
    "longitude": "-51.378568",
    "name": "Andradina, SP <br> GPON",
    "latitude": "-20.894761",
    "color": "green"
  },
  {
    "longitude": "-46.319983",
    "name": "Arujá, SP <br> GPON",
    "latitude": "-23.396476",
    "color": "green"
  },
  {
    "longitude": "-48.925052",
    "name": "Avaré, SP <br> GPON",
    "latitude": "-23.106732",
    "color": "green"
  },
  {
    "longitude": "-49.4385",
    "name": "Bady Bassitt, SP <br> GPON",
    "latitude": "-20.919689",
    "color": "green"
  },
  {
    "longitude": "-48.569832",
    "name": "Barretos, SP <br> GPON",
    "latitude": "-20.553146",
    "color": "green"
  },
  {
    "longitude": "-48.163614",
    "name": "Barrinha, SP <br> GPON",
    "latitude": "-21.186374",
    "color": "green"
  },
  {
    "longitude": "-47.592149",
    "name": "Batatais, SP <br> GPON",
    "latitude": "-20.892867",
    "color": "green"
  },
  {
    "longitude": "-48.479083",
    "name": "Bebedouro, SP <br> GPON",
    "latitude": "-20.949077",
    "color": "green"
  },
  {
    "longitude": "-50.343162",
    "name": "Birigui, SP <br> GPON",
    "latitude": "-21.291034",
    "color": "green"
  },
  {
    "longitude": "-47.678574",
    "name": "Boituva, SP <br> GPON",
    "latitude": "-23.285531",
    "color": "green"
  },
  {
    "longitude": "-47.136251",
    "name": "Cabreúva, SP <br> GPON",
    "latitude": "-23.30533",
    "color": "green"
  },
  {
    "longitude": "-46.73974",
    "name": "Caieiras, SP <br> GPON",
    "latitude": "-23.360729",
    "color": "green"
  },
  {
    "longitude": "-46.878146",
    "name": "Cajamar, SP <br> GPON",
    "latitude": "-23.355014",
    "color": "green"
  },
  {
    "longitude": "-46.788919",
    "name": "Campo Limpo Paulista, SP <br> GPON",
    "latitude": "-23.207791",
    "color": "green"
  },
  {
    "longitude": "-45.583337",
    "name": "Campos do Jordão, SP <br> GPON",
    "latitude": "-22.729618",
    "color": "green"
  },
  {
    "longitude": "-45.412533",
    "name": "Caraguatatuba, SP <br> GPON",
    "latitude": "-23.612535",
    "color": "green"
  },
  {
    "longitude": "-48.977015",
    "name": "Catanduva, SP <br> GPON",
    "latitude": "-21.131381",
    "color": "green"
  },
  {
    "longitude": "-47.745862",
    "name": "Cerquilho, SP <br> GPON",
    "latitude": "-23.166487",
    "color": "green"
  },
  {
    "longitude": "-47.451886",
    "name": "Cordeirópolis, SP <br> GPON",
    "latitude": "-22.477778",
    "color": "green"
  },
  {
    "longitude": "-47.732427",
    "name": "Cravinhos, SP <br> GPON",
    "latitude": "-21.337959",
    "color": "green"
  },
  {
    "longitude": "-47.618105",
    "name": "Descalvado, SP <br> GPON",
    "latitude": "-21.900211",
    "color": "green"
  },
  {
    "longitude": "-51.535034",
    "name": "Dracena, SP <br> GPON",
    "latitude": "-21.484311",
    "color": "green"
  },
  {
    "longitude": "-46.74767",
    "name": "Espírito Santo do Pinhal, SP <br> GPON",
    "latitude": "-22.190871",
    "color": "green"
  },
  {
    "longitude": "-50.247115",
    "name": "Fernandópolis, SP <br> GPON",
    "latitude": "-20.280556",
    "color": "green"
  },
  {
    "longitude": "-49.654596",
    "name": "Garça, SP <br> GPON",
    "latitude": "-22.212516",
    "color": "green"
  },
  {
    "longitude": "-48.31197",
    "name": "Guaíra, SP <br> GPON",
    "latitude": "-20.319591",
    "color": "green"
  },
  {
    "longitude": "-49.217201",
    "name": "Guapiaçu, SP <br> GPON",
    "latitude": "-20.795885",
    "color": "green"
  },
  {
    "longitude": "-50.645338",
    "name": "Guararapes, SP <br> GPON",
    "latitude": "-21.254431",
    "color": "green"
  },
  {
    "longitude": "-47.223037",
    "name": "Ibiúna, SP <br> GPON",
    "latitude": "-23.65961",
    "color": "green"
  },
  {
    "longitude": "-47.692717",
    "name": "Iperó, SP <br> GPON",
    "latitude": "-23.351296",
    "color": "green"
  },
  {
    "longitude": "-46.787986",
    "name": "Itanhaém, SP <br> GPON",
    "latitude": "-24.173633",
    "color": "green"
  },
  {
    "longitude": "-48.876433",
    "name": "Itapeva, SP <br> GPON",
    "latitude": "-23.978823",
    "color": "green"
  },
  {
    "longitude": "-46.822434",
    "name": "Itapira, SP <br> GPON",
    "latitude": "-22.435731",
    "color": "green"
  },
  {
    "longitude": "-46.345724",
    "name": "Itaquaquecetuba, SP <br> GPON",
    "latitude": "-23.483481",
    "color": "green"
  },
  {
    "longitude": "-46.846353",
    "name": "Itatiba, SP <br> GPON",
    "latitude": "-23.003497",
    "color": "green"
  },
  {
    "longitude": "-47.059262",
    "name": "Itupeva, SP <br> GPON",
    "latitude": "-23.152635",
    "color": "green"
  },
  {
    "longitude": "-47.790207",
    "name": "Ituverava, SP <br> GPON",
    "latitude": "-20.335465",
    "color": "green"
  },
  {
    "longitude": "-48.325223",
    "name": "Jaboticabal, SP <br> GPON",
    "latitude": "-21.252037",
    "color": "green"
  },
  {
    "longitude": "-50.549442",
    "name": "Jales, SP <br> GPON",
    "latitude": "-20.267227",
    "color": "green"
  },
  {
    "longitude": "-47.760583",
    "name": "Jardinópolis, SP <br> GPON",
    "latitude": "-21.017612",
    "color": "green"
  },
  {
    "longitude": "-46.728015",
    "name": "Jarinu, SP <br> GPON",
    "latitude": "-23.103855",
    "color": "green"
  },
  {
    "longitude": "-49.689233",
    "name": "José Bonifácio, SP <br> GPON",
    "latitude": "-21.055062",
    "color": "green"
  },
  {
    "longitude": "-47.837549",
    "name": "Laranjal Paulista, SP <br> GPON",
    "latitude": "-23.050564",
    "color": "green"
  },
  {
    "longitude": "-47.384109",
    "name": "Leme, SP <br> GPON",
    "latitude": "-22.180857",
    "color": "green"
  },
  {
    "longitude": "-48.803683",
    "name": "Lençóis Paulista, SP <br> GPON",
    "latitude": "-22.602693",
    "color": "green"
  },
  {
    "longitude": "-49.752555",
    "name": "Lins, SP <br> GPON",
    "latitude": "-21.67182",
    "color": "green"
  },
  {
    "longitude": "-46.948369",
    "name": "Louveira, SP <br> GPON",
    "latitude": "-23.085572",
    "color": "green"
  },
  {
    "longitude": "-47.184995",
    "name": "Mairinque, SP <br> GPON",
    "latitude": "-23.539822",
    "color": "green"
  },
  {
    "longitude": "-48.363968",
    "name": "Matão, SP <br> GPON",
    "latitude": "-21.602511",
    "color": "green"
  },
  {
    "longitude": "-51.1035",
    "name": "Mirandópolis, SP <br> GPON",
    "latitude": "-21.131345",
    "color": "green"
  },
  {
    "longitude": "-49.52061",
    "name": "Mirassol, SP <br> GPON",
    "latitude": "-20.816874",
    "color": "green"
  },
  {
    "longitude": "-47.002405",
    "name": "Mococa, SP <br> GPON",
    "latitude": "-21.464731",
    "color": "green"
  },
  {
    "longitude": "-46.626526",
    "name": "Mongaguá, SP <br> GPON",
    "latitude": "-24.080901",
    "color": "green"
  },
  {
    "longitude": "-48.497066",
    "name": "Monte Alto, SP <br> GPON",
    "latitude": "-21.265545",
    "color": "green"
  },
  {
    "longitude": "-46.789601",
    "name": "Morungaba, SP <br> GPON",
    "latitude": "-22.881071",
    "color": "green"
  },
  {
    "longitude": "-47.885205",
    "name": "Orlândia, SP <br> GPON",
    "latitude": "-20.716925",
    "color": "green"
  },
  {
    "longitude": "-49.869702",
    "name": "Ourinhos, SP <br> GPON",
    "latitude": "-22.979695",
    "color": "green"
  },
  {
    "longitude": "-46.894846",
    "name": "Pedreira, SP <br> GPON",
    "latitude": "-22.741347",
    "color": "green"
  },
  {
    "longitude": "-50.076855",
    "name": "Penápolis, SP <br> GPON",
    "latitude": "-21.414765",
    "color": "green"
  },
  {
    "longitude": "-47.0012",
    "name": "Peruíbe, SP <br> GPON",
    "latitude": "-24.311974",
    "color": "green"
  },
  {
    "longitude": "-46.359374",
    "name": "Piracaia, SP <br> GPON",
    "latitude": "-23.052545",
    "color": "green"
  },
  {
    "longitude": "-47.425746",
    "name": "Pirassununga, SP <br> GPON",
    "latitude": "-21.995982",
    "color": "green"
  },
  {
    "longitude": "-48.042261",
    "name": "Pontal, SP <br> GPON",
    "latitude": "-21.021565",
    "color": "green"
  },
  {
    "longitude": "-47.487034",
    "name": "Porto Ferreira, SP <br> GPON",
    "latitude": "-21.849814",
    "color": "green"
  },
  {
    "longitude": "-49.381509",
    "name": "Potirendaba, SP <br> GPON",
    "latitude": "-21.042789",
    "color": "green"
  },
  {
    "longitude": "-51.556507",
    "name": "Presidente Bernardes, SP <br> GPON",
    "latitude": "-22.008198",
    "color": "green"
  },
  {
    "longitude": "-49.85989",
    "name": "Promissão, SP <br> GPON",
    "latitude": "-21.535572",
    "color": "green"
  },
  {
    "longitude": "-47.844895",
    "name": "Registro, SP <br> GPON",
    "latitude": "-24.497942",
    "color": "green"
  },
  {
    "longitude": "-46.405805",
    "name": "Ribeirão Pires, SP <br> GPON",
    "latitude": "-23.706669",
    "color": "green"
  },
  {
    "longitude": "-49.635444",
    "name": "Santa Cruz do Rio Pardo, SP <br> GPON",
    "latitude": "-22.89875",
    "color": "green"
  },
  {
    "longitude": "-47.52716",
    "name": "Santa Gertrudes, SP <br> GPON",
    "latitude": "-22.457229",
    "color": "green"
  },
  {
    "longitude": "-46.223668",
    "name": "Santa Isabel, SP <br> GPON",
    "latitude": "-23.317194",
    "color": "green"
  },
  {
    "longitude": "-47.362213",
    "name": "Santa Rosa de Viterbo, SP <br> GPON",
    "latitude": "-21.477568",
    "color": "green"
  },
  {
    "longitude": "-46.794356",
    "name": "São João da Boa Vista, SP <br> GPON",
    "latitude": "-21.970747",
    "color": "green"
  },
  {
    "longitude": "-47.859316",
    "name": "São Joaquim da Barra, SP <br> GPON",
    "latitude": "-20.581158",
    "color": "green"
  },
  {
    "longitude": "-46.887303",
    "name": "São José do Rio Pardo, SP <br> GPON",
    "latitude": "-21.595288",
    "color": "green"
  },
  {
    "longitude": "-47.13567",
    "name": "São Roque, SP <br> GPON",
    "latitude": "-23.522598",
    "color": "green"
  },
  {
    "longitude": "-45.414314",
    "name": "São Sebastião, SP <br> GPON",
    "latitude": "-23.795059",
    "color": "green"
  },
  {
    "longitude": "-46.703271",
    "name": "Serra Negra, SP <br> GPON",
    "latitude": "-22.613941",
    "color": "green"
  },
  {
    "longitude": "-47.595239",
    "name": "Serrana, SP <br> GPON",
    "latitude": "-21.204336",
    "color": "green"
  },
  {
    "longitude": "-47.84612",
    "name": "Tatuí, SP <br> GPON",
    "latitude": "-23.348731",
    "color": "green"
  },
  {
    "longitude": "-45.547526",
    "name": "Tremembé, SP <br> GPON",
    "latitude": "-22.95714",
    "color": "green"
  },
  {
    "longitude": "-45.083415",
    "name": "Ubatuba, SP <br> GPON",
    "latitude": "-23.433162",
    "color": "green"
  },
  {
    "longitude": "-50.869874",
    "name": "Valparaíso, SP <br> GPON",
    "latitude": "-21.222929",
    "color": "green"
  },
  {
    "longitude": "-46.823444",
    "name": "Várzea Paulista, SP <br> GPON",
    "latitude": "-23.213582",
    "color": "green"
  },
  {
    "longitude": "-49.978112",
    "name": "Votuporanga, SP <br> GPON",
    "latitude": "-20.423659",
    "color": "green"
  },
  {
    "longitude": "-48.882269",
    "name": "Paraíso do Tocantins, TO <br> GPON",
    "latitude": "-10.174998",
    "color": "green"
  }
]
