[{"uf":"AL","longitude":"-36.661471","name":"Arapiraca, AL <br> GPON","cidade":"Arapiraca","color":"green","latitude":"-9.754866","tecnologia":"GPON"},{"uf":"GO","longitude":"-49.492667","name":"Trindade, GO <br> GPON","cidade":"Trindade","color":"green","latitude":"-16.651708","tecnologia":"GPON"},{"uf":"MG","longitude":"-46.943804","name":"Araxá, MG <br> GPON","cidade":"Araxá","color":"green","latitude":"-19.590176","tecnologia":"GPON"},{"uf":"MG","longitude":"-45.459818","name":"Itajubá, MG <br> GPON","cidade":"Itajubá","color":"green","latitude":"-22.422481","tecnologia":"GPON"},{"uf":"RJ","longitude":"-43.304004","name":"Paraíba Do Sul, RJ <br> GPON","cidade":"Paraíba Do Sul","color":"green","latitude":"-22.158462","tecnologia":"GPON"},{"uf":"RO","longitude":"-61.932152","name":"Ji-Paraná, RO <br> GPON","cidade":"Ji-Paraná","color":"green","latitude":"-10.877741","tecnologia":"GPON"},{"uf":"RS","longitude":"-51.80431","name":"Camaquã, RS <br> GPON","cidade":"Camaquã","color":"green","latitude":"-30.848897","tecnologia":"GPON"},{"uf":"RS","longitude":"-51.089776","name":"Dois Irmãos, RS <br> GPON","cidade":"Dois Irmãos","color":"green","latitude":"-29.58356","tecnologia":"GPON"},{"uf":"RS","longitude":"-52.198625","name":"Marau, RS <br> GPON","cidade":"Marau","color":"green","latitude":"-28.449754","tecnologia":"GPON"},{"uf":"RS","longitude":"-50.941791","name":"Vacaria, RS <br> GPON","cidade":"Vacaria","color":"green","latitude":"-28.507868","tecnologia":"GPON"},{"uf":"SC","longitude":"-49.308654","name":"Içara, SC <br> GPON","cidade":"Içara","color":"green","latitude":"-28.713206","tecnologia":"GPON"},{"uf":"SP","longitude":"-48.98632","name":"Agudos, SP <br> GPON","cidade":"Agudos","color":"green","latitude":"-22.469433","tecnologia":"GPON"},{"uf":"SP","longitude":"-47.085245","name":"Casa Branca, SP <br> GPON","cidade":"Casa Branca","color":"green","latitude":"-21.77081","tecnologia":"GPON"},{"uf":"SP","longitude":"-47.988211","name":"Ibaté, SP <br> GPON","cidade":"Ibaté","color":"green","latitude":"-21.958358","tecnologia":"GPON"},{"uf":"SP","longitude":"-46.985062","name":"Jaguariúna, SP <br> GPON","cidade":"Jaguariúna","color":"green","latitude":"-22.70374","tecnologia":"GPON"},{"uf":"SP","longitude":"-47.425572","name":"Piedade, SP <br> GPON","cidade":"Piedade","color":"green","latitude":"-23.713941","tecnologia":"GPON"},{"uf":"SP","longitude":"-47.248023","name":"Santa Cruz das Palmeiras, SP <br> GPON","cidade":"Santa Cruz das Palmeiras","color":"green","latitude":"-21.823475","tecnologia":"GPON"},{"uf":"SP","longitude":"-47.270344","name":"Tambaú, SP <br> GPON","cidade":"Tambaú","color":"green","latitude":"-21.70292","tecnologia":"GPON"},{"uf":"TO","longitude":"-48.204402","name":"Araguaína, TO <br> GPON","cidade":"Araguaína","color":"green","latitude":"-7.192375","tecnologia":"GPON"},{"uf":"TO","longitude":"-49.068046","name":"Gurupi, TO <br> GPON","cidade":"Gurupi","color":"green","latitude":"-11.72794","tecnologia":"GPON"},{"uf":"PR","longitude":"-51.463486","name":"Apucarana, PR <br> GPON","cidade":"Apucarana","color":"green","latitude":"-23.549961","tecnologia":"GPON"},{"uf":"SC","longitude":"-49.002628","name":"Guaramirim, SC <br> GPON","cidade":"Guaramirim","color":"green","latitude":"-26.468753","tecnologia":"GPON"},{"uf":"SP","longitude":"-46.73974","name":"Caieiras, SP <br> GPON","cidade":"Caieiras","color":"green","latitude":"-23.360729","tecnologia":"GPON"},{"uf":"SP","longitude":"-47.059262","name":"Itupeva, SP <br> GPON","cidade":"Itupeva","color":"green","latitude":"-23.152635","tecnologia":"GPON"},{"uf":"SP","longitude":"-47.184995","name":"Mairinque, SP <br> GPON","cidade":"Mairinque","color":"green","latitude":"-23.539822","tecnologia":"GPON"}]
