[{"uf":"SP","latitude":"-23.52082","cidade":"Mogi das Cruzes","color":"yellow","name":"Mogi das Cruzes, SP <br> Sobreposição HFC e GPON","tecnologia":"Sobreposição HFC e GPON","longitude":"-46.18541"},{"uf":"TO","latitude":"-10.239973","cidade":"Palmas","color":"yellow","name":"Palmas, TO <br> Sobreposição HFC e GPON","tecnologia":"Sobreposição HFC e GPON","longitude":"-48.355751"},{"uf":"AC","latitude":"-9.97499","cidade":"Rio Branco","color":"yellow","name":"Rio Branco, AC <br> Sobreposição HFC e GPON","tecnologia":"Sobreposição HFC e GPON","longitude":"-67.824348"},{"uf":"AM","latitude":"-3.118662","cidade":"Manaus","color":"yellow","name":"Manaus, AM <br> Sobreposição HFC e GPON","tecnologia":"Sobreposição HFC e GPON","longitude":"-60.02123"},{"uf":"BA","latitude":"-12.8978","cidade":"Lauro de Freitas","color":"yellow","name":"Lauro de Freitas, BA <br> Sobreposição HFC e GPON","tecnologia":"Sobreposição HFC e GPON","longitude":"-38.321008"},{"uf":"BA","latitude":"-12.97178","cidade":"Salvador","color":"yellow","name":"Salvador, BA <br> Sobreposição HFC e GPON","tecnologia":"Sobreposição HFC e GPON","longitude":"-38.501068"},{"uf":"CE","latitude":"-3.716638","cidade":"Fortaleza","color":"yellow","name":"Fortaleza, CE <br> Sobreposição HFC e GPON","tecnologia":"Sobreposição HFC e GPON","longitude":"-38.542298"},{"uf":"ES","latitude":"-20.263202","cidade":"Cariacica","color":"yellow","name":"Cariacica, ES <br> Sobreposição HFC e GPON","tecnologia":"Sobreposição HFC e GPON","longitude":"-40.416549"},{"uf":"ES","latitude":"-20.121032","cidade":"Serra","color":"yellow","name":"Serra, ES <br> Sobreposição HFC e GPON","tecnologia":"Sobreposição HFC e GPON","longitude":"-40.307408"},{"uf":"ES","latitude":"-20.341705","cidade":"Vila Velha","color":"yellow","name":"Vila Velha, ES <br> Sobreposição HFC e GPON","tecnologia":"Sobreposição HFC e GPON","longitude":"-40.287458"},{"uf":"MG","latitude":"-19.910183","cidade":"Belo Horizonte","color":"yellow","name":"Belo Horizonte, MG <br> Sobreposição HFC e GPON","tecnologia":"Sobreposição HFC e GPON","longitude":"-43.926572"},{"uf":"MG","latitude":"-19.932079","cidade":"Contagem","color":"yellow","name":"Contagem, MG <br> Sobreposição HFC e GPON","tecnologia":"Sobreposição HFC e GPON","longitude":"-44.05392"},{"uf":"MS","latitude":"-20.448589","cidade":"Campo Grande","color":"yellow","name":"Campo Grande, MS <br> Sobreposição HFC e GPON","tecnologia":"Sobreposição HFC e GPON","longitude":"-54.629463"},{"uf":"PA","latitude":"-1.363914","cidade":"Ananindeua","color":"yellow","name":"Ananindeua, PA <br> Sobreposição HFC e GPON","tecnologia":"Sobreposição HFC e GPON","longitude":"-48.374298"},{"uf":"PE","latitude":"-8.010166","cidade":"Olinda","color":"yellow","name":"Olinda, PE <br> Sobreposição HFC e GPON","tecnologia":"Sobreposição HFC e GPON","longitude":"-34.854504"},{"uf":"PE","latitude":"-7.934007","cidade":"Paulista","color":"yellow","name":"Paulista, PE <br> Sobreposição HFC e GPON","tecnologia":"Sobreposição HFC e GPON","longitude":"-34.868407"},{"uf":"PE","latitude":"-8.046658","cidade":"Recife","color":"yellow","name":"Recife, PE <br> Sobreposição HFC e GPON","tecnologia":"Sobreposição HFC e GPON","longitude":"-34.877065"},{"uf":"PI","latitude":"-5.091944","cidade":"Teresina","color":"yellow","name":"Teresina, PI <br> Sobreposição HFC e GPON","tecnologia":"Sobreposição HFC e GPON","longitude":"-42.803364"},{"uf":"PR","latitude":"-25.452535","cidade":"Campo Largo","color":"yellow","name":"Campo Largo, PR <br> Sobreposição HFC e GPON","tecnologia":"Sobreposição HFC e GPON","longitude":"-49.529026"},{"uf":"PR","latitude":"-25.419547","cidade":"Curitiba","color":"yellow","name":"Curitiba, PR <br> Sobreposição HFC e GPON","tecnologia":"Sobreposição HFC e GPON","longitude":"-49.264622"},{"uf":"PR","latitude":"-23.303975","cidade":"Londrina","color":"yellow","name":"Londrina, PR <br> Sobreposição HFC e GPON","tecnologia":"Sobreposição HFC e GPON","longitude":"-51.1691"},{"uf":"RJ","latitude":"-22.912897","cidade":"Rio de Janeiro","color":"yellow","name":"Rio de Janeiro, RJ <br> Sobreposição HFC e GPON","tecnologia":"Sobreposição HFC e GPON","longitude":"-43.200295"},{"uf":"RN","latitude":"-5.793567","cidade":"Natal","color":"yellow","name":"Natal, RN <br> Sobreposição HFC e GPON","tecnologia":"Sobreposição HFC e GPON","longitude":"-35.198604"},{"uf":"RN","latitude":"-5.911156","cidade":"Parnamirim","color":"yellow","name":"Parnamirim, RN <br> Sobreposição HFC e GPON","tecnologia":"Sobreposição HFC e GPON","longitude":"-35.271"},{"uf":"RO","latitude":"-8.760772","cidade":"Porto Velho","color":"yellow","name":"Porto Velho, RO <br> Sobreposição HFC e GPON","tecnologia":"Sobreposição HFC e GPON","longitude":"-63.899902"},{"uf":"RS","latitude":"-29.947222","cidade":"Cachoeirinha","color":"yellow","name":"Cachoeirinha, RS <br> Sobreposição HFC e GPON","tecnologia":"Sobreposição HFC e GPON","longitude":"-51.101606"},{"uf":"RS","latitude":"-29.912758","cidade":"Canoas","color":"yellow","name":"Canoas, RS <br> Sobreposição HFC e GPON","tecnologia":"Sobreposição HFC e GPON","longitude":"-51.185681"},{"uf":"RS","latitude":"-29.162905","cidade":"Caxias do Sul","color":"yellow","name":"Caxias do Sul, RS <br> Sobreposição HFC e GPON","tecnologia":"Sobreposição HFC e GPON","longitude":"-51.179161"},{"uf":"RS","latitude":"-29.222689","cidade":"Farroupilha","color":"yellow","name":"Farroupilha, RS <br> Sobreposição HFC e GPON","tecnologia":"Sobreposição HFC e GPON","longitude":"-51.341853"},{"uf":"RS","latitude":"-29.687548","cidade":"Novo Hamburgo","color":"yellow","name":"Novo Hamburgo, RS <br> Sobreposição HFC e GPON","tecnologia":"Sobreposição HFC e GPON","longitude":"-51.132828"},{"uf":"RS","latitude":"-30.031771","cidade":"Porto Alegre","color":"yellow","name":"Porto Alegre, RS <br> Sobreposição HFC e GPON","tecnologia":"Sobreposição HFC e GPON","longitude":"-51.206533"},{"uf":"RS","latitude":"-32.034875","cidade":"Rio Grande","color":"yellow","name":"Rio Grande, RS <br> Sobreposição HFC e GPON","tecnologia":"Sobreposição HFC e GPON","longitude":"-52.10705"},{"uf":"SC","latitude":"-26.304497","cidade":"Joinville","color":"yellow","name":"Joinville, SC <br> Sobreposição HFC e GPON","tecnologia":"Sobreposição HFC e GPON","longitude":"-48.848675"},{"uf":"SP","latitude":"-22.73736","cidade":"Americana","color":"yellow","name":"Americana, SP <br> Sobreposição HFC e GPON","tecnologia":"Sobreposição HFC e GPON","longitude":"-47.333119"},{"uf":"SP","latitude":"-21.784511","cidade":"Araraquara","color":"yellow","name":"Araraquara, SP <br> Sobreposição HFC e GPON","tecnologia":"Sobreposição HFC e GPON","longitude":"-48.178014"},{"uf":"SP","latitude":"-22.357238","cidade":"Araras","color":"yellow","name":"Araras, SP <br> Sobreposição HFC e GPON","tecnologia":"Sobreposição HFC e GPON","longitude":"-47.384235"},{"uf":"SP","latitude":"-23.117059","cidade":"Atibaia","color":"yellow","name":"Atibaia, SP <br> Sobreposição HFC e GPON","tecnologia":"Sobreposição HFC e GPON","longitude":"-46.556262"},{"uf":"SP","latitude":"-22.905346","cidade":"Campinas","color":"yellow","name":"Campinas, SP <br> Sobreposição HFC e GPON","tecnologia":"Sobreposição HFC e GPON","longitude":"-47.06595"},{"uf":"SP","latitude":"-23.681347","cidade":"Diadema","color":"yellow","name":"Diadema, SP <br> Sobreposição HFC e GPON","tecnologia":"Sobreposição HFC e GPON","longitude":"-46.62052"},{"uf":"SP","latitude":"-23.042822","cidade":"Elias Fausto","color":"yellow","name":"Elias Fausto, SP <br> Sobreposição HFC e GPON","tecnologia":"Sobreposição HFC e GPON","longitude":"-47.368153"},{"uf":"SP","latitude":"-20.53523","cidade":"Franca","color":"yellow","name":"Franca, SP <br> Sobreposição HFC e GPON","tecnologia":"Sobreposição HFC e GPON","longitude":"-47.403861"},{"uf":"SP","latitude":"-23.453758","cidade":"Guarulhos","color":"yellow","name":"Guarulhos, SP <br> Sobreposição HFC e GPON","tecnologia":"Sobreposição HFC e GPON","longitude":"-46.533347"},{"uf":"SP","latitude":"-23.081591","cidade":"Indaiatuba","color":"yellow","name":"Indaiatuba, SP <br> Sobreposição HFC e GPON","tecnologia":"Sobreposição HFC e GPON","longitude":"-47.210093"},{"uf":"SP","latitude":"-23.254397","cidade":"Itu","color":"yellow","name":"Itu, SP <br> Sobreposição HFC e GPON","tecnologia":"Sobreposição HFC e GPON","longitude":"-47.292688"},{"uf":"SP","latitude":"-23.53239","cidade":"Osasco","color":"yellow","name":"Osasco, SP <br> Sobreposição HFC e GPON","tecnologia":"Sobreposição HFC e GPON","longitude":"-46.791555"},{"uf":"SP","latitude":"-22.733801","cidade":"Piracicaba","color":"yellow","name":"Piracicaba, SP <br> Sobreposição HFC e GPON","tecnologia":"Sobreposição HFC e GPON","longitude":"-47.647612"},{"uf":"SP","latitude":"-24.008378","cidade":"Praia Grande","color":"yellow","name":"Praia Grande, SP <br> Sobreposição HFC e GPON","tecnologia":"Sobreposição HFC e GPON","longitude":"-46.412057"},{"uf":"SP","latitude":"-22.398378","cidade":"Rio Claro","color":"yellow","name":"Rio Claro, SP <br> Sobreposição HFC e GPON","tecnologia":"Sobreposição HFC e GPON","longitude":"-47.554632"},{"uf":"SP","latitude":"-23.953543","cidade":"Santos","color":"yellow","name":"Santos, SP <br> Sobreposição HFC e GPON","tecnologia":"Sobreposição HFC e GPON","longitude":"-46.335042"},{"uf":"SP","latitude":"-23.496886","cidade":"Sorocaba","color":"yellow","name":"Sorocaba, SP <br> Sobreposição HFC e GPON","tecnologia":"Sobreposição HFC e GPON","longitude":"-47.445073"},{"uf":"SP","latitude":"-22.969805","cidade":"Valinhos","color":"yellow","name":"Valinhos, SP <br> Sobreposição HFC e GPON","tecnologia":"Sobreposição HFC e GPON","longitude":"-46.997367"}]
