[{"longitude":"-43.063351","name":"São Gonçalo, RJ <br> HFC","cidade":"São Gonçalo","latitude":"-22.82679","color":"red","tecnologia":"HFC","uf":"RJ"},{"longitude":"-49.372887","name":"Criciúma, SC <br> HFC","cidade":"Criciúma","latitude":"-28.672267","color":"red","tecnologia":"HFC","uf":"SC"},{"longitude":"-46.18541","name":"Mogi das Cruzes, SP <br> HFC","cidade":"Mogi das Cruzes","latitude":"-23.52082","color":"red","tecnologia":"HFC","uf":"SP"},{"longitude":"-45.887521","name":"Santa Branca, SP <br> HFC","cidade":"Santa Branca","latitude":"-23.393311","color":"red","tecnologia":"HFC","uf":"SP"},{"longitude":"-48.355751","name":"Palmas, TO <br> HFC","cidade":"Palmas","latitude":"-10.239973","color":"red","tecnologia":"HFC","uf":"TO"},{"longitude":"-67.824348","name":"Rio Branco, AC <br> HFC","cidade":"Rio Branco","latitude":"-9.97499","color":"red","tecnologia":"HFC","uf":"AC"},{"longitude":"-60.02123","name":"Manaus, AM <br> HFC","cidade":"Manaus","latitude":"-3.118662","color":"red","tecnologia":"HFC","uf":"AM"},{"longitude":"-38.321008","name":"Lauro de Freitas, BA <br> HFC","cidade":"Lauro de Freitas","latitude":"-12.8978","color":"red","tecnologia":"HFC","uf":"BA"},{"longitude":"-38.501068","name":"Salvador, BA <br> HFC","cidade":"Salvador","latitude":"-12.97178","color":"red","tecnologia":"HFC","uf":"BA"},{"longitude":"-38.542298","name":"Fortaleza, CE <br> HFC","cidade":"Fortaleza","latitude":"-3.716638","color":"red","tecnologia":"HFC","uf":"CE"},{"longitude":"-40.416549","name":"Cariacica, ES <br> HFC","cidade":"Cariacica","latitude":"-20.263202","color":"red","tecnologia":"HFC","uf":"ES"},{"longitude":"-40.307408","name":"Serra, ES <br> HFC","cidade":"Serra","latitude":"-20.121032","color":"red","tecnologia":"HFC","uf":"ES"},{"longitude":"-40.287458","name":"Vila Velha, ES <br> HFC","cidade":"Vila Velha","latitude":"-20.341705","color":"red","tecnologia":"HFC","uf":"ES"},{"longitude":"-43.926572","name":"Belo Horizonte, MG <br> HFC","cidade":"Belo Horizonte","latitude":"-19.910183","color":"red","tecnologia":"HFC","uf":"MG"},{"longitude":"-44.05392","name":"Contagem, MG <br> HFC","cidade":"Contagem","latitude":"-19.932079","color":"red","tecnologia":"HFC","uf":"MG"},{"longitude":"-54.629463","name":"Campo Grande, MS <br> HFC","cidade":"Campo Grande","latitude":"-20.448589","color":"red","tecnologia":"HFC","uf":"MS"},{"longitude":"-48.374298","name":"Ananindeua, PA <br> HFC","cidade":"Ananindeua","latitude":"-1.363914","color":"red","tecnologia":"HFC","uf":"PA"},{"longitude":"-34.828409","name":"Cabedelo, PB <br> HFC","cidade":"Cabedelo","latitude":"-6.987314","color":"red","tecnologia":"HFC","uf":"PB"},{"longitude":"-34.854504","name":"Olinda, PE <br> HFC","cidade":"Olinda","latitude":"-8.010166","color":"red","tecnologia":"HFC","uf":"PE"},{"longitude":"-34.868407","name":"Paulista, PE <br> HFC","cidade":"Paulista","latitude":"-7.934007","color":"red","tecnologia":"HFC","uf":"PE"},{"longitude":"-34.877065","name":"Recife, PE <br> HFC","cidade":"Recife","latitude":"-8.046658","color":"red","tecnologia":"HFC","uf":"PE"},{"longitude":"-51.42592","name":"Arapongas, PR <br> HFC","cidade":"Arapongas","latitude":"-23.415296","color":"red","tecnologia":"HFC","uf":"PR"},{"longitude":"-49.529026","name":"Campo Largo, PR <br> HFC","cidade":"Campo Largo","latitude":"-25.452535","color":"red","tecnologia":"HFC","uf":"PR"},{"longitude":"-49.22616","name":"Colombo, PR <br> HFC","cidade":"Colombo","latitude":"-25.292487","color":"red","tecnologia":"HFC","uf":"PR"},{"longitude":"-49.264622","name":"Curitiba, PR <br> HFC","cidade":"Curitiba","latitude":"-25.419547","color":"red","tecnologia":"HFC","uf":"PR"},{"longitude":"-49.19267","name":"Pinhais, PR <br> HFC","cidade":"Pinhais","latitude":"-25.442949","color":"red","tecnologia":"HFC","uf":"PR"},{"longitude":"-43.200295","name":"Rio de Janeiro, RJ <br> HFC","cidade":"Rio de Janeiro","latitude":"-22.912897","color":"red","tecnologia":"HFC","uf":"RJ"},{"longitude":"-35.198604","name":"Natal, RN <br> HFC","cidade":"Natal","latitude":"-5.793567","color":"red","tecnologia":"HFC","uf":"RN"},{"longitude":"-63.899902","name":"Porto Velho, RO <br> HFC","cidade":"Porto Velho","latitude":"-8.760772","color":"red","tecnologia":"HFC","uf":"RO"},{"longitude":"-51.080857","name":"Alvorada, RS <br> HFC","cidade":"Alvorada","latitude":"-29.9914","color":"red","tecnologia":"HFC","uf":"RS"},{"longitude":"-51.101606","name":"Cachoeirinha, RS <br> HFC","cidade":"Cachoeirinha","latitude":"-29.947222","color":"red","tecnologia":"HFC","uf":"RS"},{"longitude":"-51.185681","name":"Canoas, RS <br> HFC","cidade":"Canoas","latitude":"-29.912758","color":"red","tecnologia":"HFC","uf":"RS"},{"longitude":"-51.179161","name":"Caxias do Sul, RS <br> HFC","cidade":"Caxias do Sul","latitude":"-29.162905","color":"red","tecnologia":"HFC","uf":"RS"},{"longitude":"-51.184065","name":"Esteio, RS <br> HFC","cidade":"Esteio","latitude":"-29.851963","color":"red","tecnologia":"HFC","uf":"RS"},{"longitude":"-51.341853","name":"Farroupilha, RS <br> HFC","cidade":"Farroupilha","latitude":"-29.222689","color":"red","tecnologia":"HFC","uf":"RS"},{"longitude":"-51.132828","name":"Novo Hamburgo, RS <br> HFC","cidade":"Novo Hamburgo","latitude":"-29.687548","color":"red","tecnologia":"HFC","uf":"RS"},{"longitude":"-51.206533","name":"Porto Alegre, RS <br> HFC","cidade":"Porto Alegre","latitude":"-30.031771","color":"red","tecnologia":"HFC","uf":"RS"},{"longitude":"-52.10705","name":"Rio Grande, RS <br> HFC","cidade":"Rio Grande","latitude":"-32.034875","color":"red","tecnologia":"HFC","uf":"RS"},{"longitude":"-51.144975","name":"Sapucaia do Sul, RS <br> HFC","cidade":"Sapucaia do Sul","latitude":"-29.827575","color":"red","tecnologia":"HFC","uf":"RS"},{"longitude":"-48.547696","name":"Florianópolis, SC <br> HFC","cidade":"Florianópolis","latitude":"-27.594486","color":"red","tecnologia":"HFC","uf":"SC"},{"longitude":"-48.848675","name":"Joinville, SC <br> HFC","cidade":"Joinville","latitude":"-26.304497","color":"red","tecnologia":"HFC","uf":"SC"},{"longitude":"-47.333119","name":"Americana, SP <br> HFC","cidade":"Americana","latitude":"-22.73736","color":"red","tecnologia":"HFC","uf":"SP"},{"longitude":"-48.178014","name":"Araraquara, SP <br> HFC","cidade":"Araraquara","latitude":"-21.784511","color":"red","tecnologia":"HFC","uf":"SP"},{"longitude":"-47.384235","name":"Araras, SP <br> HFC","cidade":"Araras","latitude":"-22.357238","color":"red","tecnologia":"HFC","uf":"SP"},{"longitude":"-46.556262","name":"Atibaia, SP <br> HFC","cidade":"Atibaia","latitude":"-23.117059","color":"red","tecnologia":"HFC","uf":"SP"},{"longitude":"-46.879042","name":"Barueri, SP <br> HFC","cidade":"Barueri","latitude":"-23.505689","color":"red","tecnologia":"HFC","uf":"SP"},{"longitude":"-49.087142","name":"Bauru, SP <br> HFC","cidade":"Bauru","latitude":"-22.324569","color":"red","tecnologia":"HFC","uf":"SP"},{"longitude":"-47.06595","name":"Campinas, SP <br> HFC","cidade":"Campinas","latitude":"-22.905346","color":"red","tecnologia":"HFC","uf":"SP"},{"longitude":"-47.50715","name":"Capivari, SP <br> HFC","cidade":"Capivari","latitude":"-22.995144","color":"red","tecnologia":"HFC","uf":"SP"},{"longitude":"-46.840676","name":"Carapicuíba, SP <br> HFC","cidade":"Carapicuíba","latitude":"-23.523471","color":"red","tecnologia":"HFC","uf":"SP"},{"longitude":"-46.91902","name":"Cotia, SP <br> HFC","cidade":"Cotia","latitude":"-23.602177","color":"red","tecnologia":"HFC","uf":"SP"},{"longitude":"-46.62052","name":"Diadema, SP <br> HFC","cidade":"Diadema","latitude":"-23.681347","color":"red","tecnologia":"HFC","uf":"SP"},{"longitude":"-47.368153","name":"Elias Fausto, SP <br> HFC","cidade":"Elias Fausto","latitude":"-23.042822","color":"red","tecnologia":"HFC","uf":"SP"},{"longitude":"-47.403861","name":"Franca, SP <br> HFC","cidade":"Franca","latitude":"-20.53523","color":"red","tecnologia":"HFC","uf":"SP"},{"longitude":"-46.533347","name":"Guarulhos, SP <br> HFC","cidade":"Guarulhos","latitude":"-23.453758","color":"red","tecnologia":"HFC","uf":"SP"},{"longitude":"-47.210093","name":"Indaiatuba, SP <br> HFC","cidade":"Indaiatuba","latitude":"-23.081591","color":"red","tecnologia":"HFC","uf":"SP"},{"longitude":"-46.932747","name":"Itapevi, SP <br> HFC","cidade":"Itapevi","latitude":"-23.548774","color":"red","tecnologia":"HFC","uf":"SP"},{"longitude":"-47.292688","name":"Itu, SP <br> HFC","cidade":"Itu","latitude":"-23.254397","color":"red","tecnologia":"HFC","uf":"SP"},{"longitude":"-46.902314","name":"Jandira, SP <br> HFC","cidade":"Jandira","latitude":"-23.527537","color":"red","tecnologia":"HFC","uf":"SP"},{"longitude":"-47.312182","name":"Monte Mor, SP <br> HFC","cidade":"Monte Mor","latitude":"-22.945043","color":"red","tecnologia":"HFC","uf":"SP"},{"longitude":"-46.791555","name":"Osasco, SP <br> HFC","cidade":"Osasco","latitude":"-23.53239","color":"red","tecnologia":"HFC","uf":"SP"},{"longitude":"-47.647612","name":"Piracicaba, SP <br> HFC","cidade":"Piracicaba","latitude":"-22.733801","color":"red","tecnologia":"HFC","uf":"SP"},{"longitude":"-47.52512","name":"Porto Feliz, SP <br> HFC","cidade":"Porto Feliz","latitude":"-23.209318","color":"red","tecnologia":"HFC","uf":"SP"},{"longitude":"-46.412057","name":"Praia Grande, SP <br> HFC","cidade":"Praia Grande","latitude":"-24.008378","color":"red","tecnologia":"HFC","uf":"SP"},{"longitude":"-47.531795","name":"Rafard, SP <br> HFC","cidade":"Rafard","latitude":"-23.010508","color":"red","tecnologia":"HFC","uf":"SP"},{"longitude":"-47.554632","name":"Rio Claro, SP <br> HFC","cidade":"Rio Claro","latitude":"-22.398378","color":"red","tecnologia":"HFC","uf":"SP"},{"longitude":"-47.293087","name":"Salto, SP <br> HFC","cidade":"Salto","latitude":"-23.199592","color":"red","tecnologia":"HFC","uf":"SP"},{"longitude":"-46.335042","name":"Santos, SP <br> HFC","cidade":"Santos","latitude":"-23.953543","color":"red","tecnologia":"HFC","uf":"SP"},{"longitude":"-47.445073","name":"Sorocaba, SP <br> HFC","cidade":"Sorocaba","latitude":"-23.496886","color":"red","tecnologia":"HFC","uf":"SP"},{"longitude":"-46.311181","name":"Suzano, SP <br> HFC","cidade":"Suzano","latitude":"-23.544828","color":"red","tecnologia":"HFC","uf":"SP"},{"longitude":"-46.997367","name":"Valinhos, SP <br> HFC","cidade":"Valinhos","latitude":"-22.969805","color":"red","tecnologia":"HFC","uf":"SP"},{"longitude":"-47.022038","name":"Vargem Grande Paulista, SP <br> HFC","cidade":"Vargem Grande Paulista","latitude":"-23.599338","color":"red","tecnologia":"HFC","uf":"SP"},{"longitude":"-46.983312","name":"Vinhedo, SP <br> HFC","cidade":"Vinhedo","latitude":"-23.030184","color":"red","tecnologia":"HFC","uf":"SP"},{"longitude":"-47.438753","name":"Votorantim, SP <br> HFC","cidade":"Votorantim","latitude":"-23.54459","color":"red","tecnologia":"HFC","uf":"SP"}]
