[{"longitude":"-36.661471","uf":"AL","tecnologia":"GPON","name":"Arapiraca, AL <br> GPON","color":"green","cidade":"Arapiraca","latitude":"-9.754866"},{"longitude":"-49.492667","uf":"GO","tecnologia":"GPON","name":"Trindade, GO <br> GPON","color":"green","cidade":"Trindade","latitude":"-16.651708"},{"longitude":"-46.943804","uf":"MG","tecnologia":"GPON","name":"Araxá, MG <br> GPON","color":"green","cidade":"Araxá","latitude":"-19.590176"},{"longitude":"-45.459818","uf":"MG","tecnologia":"GPON","name":"Itajubá, MG <br> GPON","color":"green","cidade":"Itajubá","latitude":"-22.422481"},{"longitude":"-43.304004","uf":"RJ","tecnologia":"GPON","name":"Paraíba Do Sul, RJ <br> GPON","color":"green","cidade":"Paraíba Do Sul","latitude":"-22.158462"},{"longitude":"-61.932152","uf":"RO","tecnologia":"GPON","name":"Ji-Paraná, RO <br> GPON","color":"green","cidade":"Ji-Paraná","latitude":"-10.877741"},{"longitude":"-51.80431","uf":"RS","tecnologia":"GPON","name":"Camaquã, RS <br> GPON","color":"green","cidade":"Camaquã","latitude":"-30.848897"},{"longitude":"-51.089776","uf":"RS","tecnologia":"GPON","name":"Dois Irmãos, RS <br> GPON","color":"green","cidade":"Dois Irmãos","latitude":"-29.58356"},{"longitude":"-52.198625","uf":"RS","tecnologia":"GPON","name":"Marau, RS <br> GPON","color":"green","cidade":"Marau","latitude":"-28.449754"},{"longitude":"-50.941791","uf":"RS","tecnologia":"GPON","name":"Vacaria, RS <br> GPON","color":"green","cidade":"Vacaria","latitude":"-28.507868"},{"longitude":"-49.308654","uf":"SC","tecnologia":"GPON","name":"Içara, SC <br> GPON","color":"green","cidade":"Içara","latitude":"-28.713206"},{"longitude":"-48.98632","uf":"SP","tecnologia":"GPON","name":"Agudos, SP <br> GPON","color":"green","cidade":"Agudos","latitude":"-22.469433"},{"longitude":"-47.085245","uf":"SP","tecnologia":"GPON","name":"Casa Branca, SP <br> GPON","color":"green","cidade":"Casa Branca","latitude":"-21.77081"},{"longitude":"-47.988211","uf":"SP","tecnologia":"GPON","name":"Ibaté, SP <br> GPON","color":"green","cidade":"Ibaté","latitude":"-21.958358"},{"longitude":"-46.985062","uf":"SP","tecnologia":"GPON","name":"Jaguariúna, SP <br> GPON","color":"green","cidade":"Jaguariúna","latitude":"-22.70374"},{"longitude":"-47.425572","uf":"SP","tecnologia":"GPON","name":"Piedade, SP <br> GPON","color":"green","cidade":"Piedade","latitude":"-23.713941"},{"longitude":"-47.248023","uf":"SP","tecnologia":"GPON","name":"Santa Cruz das Palmeiras, SP <br> GPON","color":"green","cidade":"Santa Cruz das Palmeiras","latitude":"-21.823475"},{"longitude":"-47.270344","uf":"SP","tecnologia":"GPON","name":"Tambaú, SP <br> GPON","color":"green","cidade":"Tambaú","latitude":"-21.70292"},{"longitude":"-48.204402","uf":"TO","tecnologia":"GPON","name":"Araguaína, TO <br> GPON","color":"green","cidade":"Araguaína","latitude":"-7.192375"},{"longitude":"-49.068046","uf":"TO","tecnologia":"GPON","name":"Gurupi, TO <br> GPON","color":"green","cidade":"Gurupi","latitude":"-11.72794"},{"longitude":"-38.326265","uf":"BA","tecnologia":"GPON","name":"Camaçari, BA <br> GPON","color":"green","cidade":"Camaçari","latitude":"-12.699638"},{"longitude":"-38.300898","uf":"BA","tecnologia":"GPON","name":"Mata de São João, BA <br> GPON","color":"green","cidade":"Mata de São João","latitude":"-12.530685"},{"longitude":"-46.319983","uf":"SP","tecnologia":"GPON","name":"Arujá, SP <br> GPON","color":"green","cidade":"Arujá","latitude":"-23.396476"},{"longitude":"-46.73974","uf":"SP","tecnologia":"GPON","name":"Caieiras, SP <br> GPON","color":"green","cidade":"Caieiras","latitude":"-23.360729"},{"longitude":"-47.059262","uf":"SP","tecnologia":"GPON","name":"Itupeva, SP <br> GPON","color":"green","cidade":"Itupeva","latitude":"-23.152635"},{"longitude":"-47.184995","uf":"SP","tecnologia":"GPON","name":"Mairinque, SP <br> GPON","color":"green","cidade":"Mairinque","latitude":"-23.539822"},{"longitude":"-47.0012","uf":"SP","tecnologia":"GPON","name":"Peruíbe, SP <br> GPON","color":"green","cidade":"Peruíbe","latitude":"-24.311974"},{"longitude":"-46.405805","uf":"SP","tecnologia":"GPON","name":"Ribeirão Pires, SP <br> GPON","color":"green","cidade":"Ribeirão Pires","latitude":"-23.706669"},{"longitude":"-47.13567","uf":"SP","tecnologia":"GPON","name":"São Roque, SP <br> GPON","color":"green","cidade":"São Roque","latitude":"-23.522598"}]
