[{"uf":"SP","latitude":"-23.52082","tecnologia":"Sobreposição HFC e GPON","cidade":"Mogi das Cruzes","longitude":"-46.18541","color":"yellow","name":"Mogi das Cruzes, SP <br> Sobreposição HFC e GPON"},{"uf":"TO","latitude":"-10.239973","tecnologia":"Sobreposição HFC e GPON","cidade":"Palmas","longitude":"-48.355751","color":"yellow","name":"Palmas, TO <br> Sobreposição HFC e GPON"},{"uf":"AC","latitude":"-9.97499","tecnologia":"Sobreposição HFC e GPON","cidade":"Rio Branco","longitude":"-67.824348","color":"yellow","name":"Rio Branco, AC <br> Sobreposição HFC e GPON"},{"uf":"AL","latitude":"-9.665985","tecnologia":"Sobreposição HFC e GPON","cidade":"Maceió","longitude":"-35.73496","color":"yellow","name":"Maceió, AL <br> Sobreposição HFC e GPON"},{"uf":"AM","latitude":"-3.118662","tecnologia":"Sobreposição HFC e GPON","cidade":"Manaus","longitude":"-60.02123","color":"yellow","name":"Manaus, AM <br> Sobreposição HFC e GPON"},{"uf":"BA","latitude":"-12.8978","tecnologia":"Sobreposição HFC e GPON","cidade":"Lauro de Freitas","longitude":"-38.321008","color":"yellow","name":"Lauro de Freitas, BA <br> Sobreposição HFC e GPON"},{"uf":"BA","latitude":"-12.97178","tecnologia":"Sobreposição HFC e GPON","cidade":"Salvador","longitude":"-38.501068","color":"yellow","name":"Salvador, BA <br> Sobreposição HFC e GPON"},{"uf":"BA","latitude":"-14.861466","tecnologia":"Sobreposição HFC e GPON","cidade":"Vitória da Conquista","longitude":"-40.844159","color":"yellow","name":"Vitória da Conquista, BA <br> Sobreposição HFC e GPON"},{"uf":"CE","latitude":"-3.716638","tecnologia":"Sobreposição HFC e GPON","cidade":"Fortaleza","longitude":"-38.542298","color":"yellow","name":"Fortaleza, CE <br> Sobreposição HFC e GPON"},{"uf":"DF","latitude":"-15.779522","tecnologia":"Sobreposição HFC e GPON","cidade":"Brasília","longitude":"-47.929657","color":"yellow","name":"Brasília, DF <br> Sobreposição HFC e GPON"},{"uf":"ES","latitude":"-20.846212","tecnologia":"Sobreposição HFC e GPON","cidade":"Cachoeiro de Itapemirim","longitude":"-41.119829","color":"yellow","name":"Cachoeiro de Itapemirim, ES <br> Sobreposição HFC e GPON"},{"uf":"ES","latitude":"-20.263202","tecnologia":"Sobreposição HFC e GPON","cidade":"Cariacica","longitude":"-40.416549","color":"yellow","name":"Cariacica, ES <br> Sobreposição HFC e GPON"},{"uf":"ES","latitude":"-20.121032","tecnologia":"Sobreposição HFC e GPON","cidade":"Serra","longitude":"-40.307408","color":"yellow","name":"Serra, ES <br> Sobreposição HFC e GPON"},{"uf":"ES","latitude":"-20.341705","tecnologia":"Sobreposição HFC e GPON","cidade":"Vila Velha","longitude":"-40.287458","color":"yellow","name":"Vila Velha, ES <br> Sobreposição HFC e GPON"},{"uf":"ES","latitude":"-20.315472","tecnologia":"Sobreposição HFC e GPON","cidade":"Vitória","longitude":"-40.312806","color":"yellow","name":"Vitória, ES <br> Sobreposição HFC e GPON"},{"uf":"GO","latitude":"-16.328095","tecnologia":"Sobreposição HFC e GPON","cidade":"Anápolis","longitude":"-48.952958","color":"yellow","name":"Anápolis, GO <br> Sobreposição HFC e GPON"},{"uf":"GO","latitude":"-16.686439","tecnologia":"Sobreposição HFC e GPON","cidade":"Goiânia","longitude":"-49.264346","color":"yellow","name":"Goiânia, GO <br> Sobreposição HFC e GPON"},{"uf":"MA","latitude":"-2.538742","tecnologia":"Sobreposição HFC e GPON","cidade":"São Luís","longitude":"-44.282513","color":"yellow","name":"São Luís, MA <br> Sobreposição HFC e GPON"},{"uf":"MG","latitude":"-19.910183","tecnologia":"Sobreposição HFC e GPON","cidade":"Belo Horizonte","longitude":"-43.926572","color":"yellow","name":"Belo Horizonte, MG <br> Sobreposição HFC e GPON"},{"uf":"MG","latitude":"-19.932079","tecnologia":"Sobreposição HFC e GPON","cidade":"Contagem","longitude":"-44.05392","color":"yellow","name":"Contagem, MG <br> Sobreposição HFC e GPON"},{"uf":"MG","latitude":"-18.854452","tecnologia":"Sobreposição HFC e GPON","cidade":"Governador Valadares","longitude":"-41.95553","color":"yellow","name":"Governador Valadares, MG <br> Sobreposição HFC e GPON"},{"uf":"MG","latitude":"-19.470275","tecnologia":"Sobreposição HFC e GPON","cidade":"Ipatinga","longitude":"-42.547612","color":"yellow","name":"Ipatinga, MG <br> Sobreposição HFC e GPON"},{"uf":"MG","latitude":"-21.75952","tecnologia":"Sobreposição HFC e GPON","cidade":"Juiz de Fora","longitude":"-43.339759","color":"yellow","name":"Juiz de Fora, MG <br> Sobreposição HFC e GPON"},{"uf":"MG","latitude":"-19.975763","tecnologia":"Sobreposição HFC e GPON","cidade":"Nova Lima","longitude":"-43.850854","color":"yellow","name":"Nova Lima, MG <br> Sobreposição HFC e GPON"},{"uf":"MG","latitude":"-19.747205","tecnologia":"Sobreposição HFC e GPON","cidade":"Uberaba","longitude":"-47.938073","color":"yellow","name":"Uberaba, MG <br> Sobreposição HFC e GPON"},{"uf":"MG","latitude":"-18.914142","tecnologia":"Sobreposição HFC e GPON","cidade":"Uberlândia","longitude":"-48.274934","color":"yellow","name":"Uberlândia, MG <br> Sobreposição HFC e GPON"},{"uf":"MS","latitude":"-20.448589","tecnologia":"Sobreposição HFC e GPON","cidade":"Campo Grande","longitude":"-54.629463","color":"yellow","name":"Campo Grande, MS <br> Sobreposição HFC e GPON"},{"uf":"MS","latitude":"-22.223099","tecnologia":"Sobreposição HFC e GPON","cidade":"Dourados","longitude":"-54.812043","color":"yellow","name":"Dourados, MS <br> Sobreposição HFC e GPON"},{"uf":"MT","latitude":"-15.600979","tecnologia":"Sobreposição HFC e GPON","cidade":"Cuiabá","longitude":"-56.097397","color":"yellow","name":"Cuiabá, MT <br> Sobreposição HFC e GPON"},{"uf":"PA","latitude":"-1.363914","tecnologia":"Sobreposição HFC e GPON","cidade":"Ananindeua","longitude":"-48.374298","color":"yellow","name":"Ananindeua, PA <br> Sobreposição HFC e GPON"},{"uf":"PA","latitude":"-1.455396","tecnologia":"Sobreposição HFC e GPON","cidade":"Belém","longitude":"-48.489756","color":"yellow","name":"Belém, PA <br> Sobreposição HFC e GPON"},{"uf":"PB","latitude":"-7.11509","tecnologia":"Sobreposição HFC e GPON","cidade":"João Pessoa","longitude":"-34.864121","color":"yellow","name":"João Pessoa, PB <br> Sobreposição HFC e GPON"},{"uf":"PE","latitude":"-8.284547","tecnologia":"Sobreposição HFC e GPON","cidade":"Caruaru","longitude":"-35.969863","color":"yellow","name":"Caruaru, PE <br> Sobreposição HFC e GPON"},{"uf":"PE","latitude":"-8.112982","tecnologia":"Sobreposição HFC e GPON","cidade":"Jaboatão Dos Guararapes","longitude":"-35.014959","color":"yellow","name":"Jaboatão Dos Guararapes, PE <br> Sobreposição HFC e GPON"},{"uf":"PE","latitude":"-8.010166","tecnologia":"Sobreposição HFC e GPON","cidade":"Olinda","longitude":"-34.854504","color":"yellow","name":"Olinda, PE <br> Sobreposição HFC e GPON"},{"uf":"PE","latitude":"-7.934007","tecnologia":"Sobreposição HFC e GPON","cidade":"Paulista","longitude":"-34.868407","color":"yellow","name":"Paulista, PE <br> Sobreposição HFC e GPON"},{"uf":"PE","latitude":"-8.046658","tecnologia":"Sobreposição HFC e GPON","cidade":"Recife","longitude":"-34.877065","color":"yellow","name":"Recife, PE <br> Sobreposição HFC e GPON"},{"uf":"PI","latitude":"-5.091944","tecnologia":"Sobreposição HFC e GPON","cidade":"Teresina","longitude":"-42.803364","color":"yellow","name":"Teresina, PI <br> Sobreposição HFC e GPON"},{"uf":"PR","latitude":"-25.452535","tecnologia":"Sobreposição HFC e GPON","cidade":"Campo Largo","longitude":"-49.529026","color":"yellow","name":"Campo Largo, PR <br> Sobreposição HFC e GPON"},{"uf":"PR","latitude":"-25.419547","tecnologia":"Sobreposição HFC e GPON","cidade":"Curitiba","longitude":"-49.264622","color":"yellow","name":"Curitiba, PR <br> Sobreposição HFC e GPON"},{"uf":"PR","latitude":"-25.390237","tecnologia":"Sobreposição HFC e GPON","cidade":"Guarapuava","longitude":"-51.462317","color":"yellow","name":"Guarapuava, PR <br> Sobreposição HFC e GPON"},{"uf":"PR","latitude":"-23.303975","tecnologia":"Sobreposição HFC e GPON","cidade":"Londrina","longitude":"-51.1691","color":"yellow","name":"Londrina, PR <br> Sobreposição HFC e GPON"},{"uf":"PR","latitude":"-25.091622","tecnologia":"Sobreposição HFC e GPON","cidade":"Ponta Grossa","longitude":"-50.166787","color":"yellow","name":"Ponta Grossa, PR <br> Sobreposição HFC e GPON"},{"uf":"RJ","latitude":"-22.548084","tecnologia":"Sobreposição HFC e GPON","cidade":"Barra Mansa","longitude":"-44.175241","color":"yellow","name":"Barra Mansa, RJ <br> Sobreposição HFC e GPON"},{"uf":"RJ","latitude":"-22.376807","tecnologia":"Sobreposição HFC e GPON","cidade":"Macaé","longitude":"-41.784828","color":"yellow","name":"Macaé, RJ <br> Sobreposição HFC e GPON"},{"uf":"RJ","latitude":"-22.88321","tecnologia":"Sobreposição HFC e GPON","cidade":"Niterói","longitude":"-43.103367","color":"yellow","name":"Niterói, RJ <br> Sobreposição HFC e GPON"},{"uf":"RJ","latitude":"-22.470473","tecnologia":"Sobreposição HFC e GPON","cidade":"Resende","longitude":"-44.45091","color":"yellow","name":"Resende, RJ <br> Sobreposição HFC e GPON"},{"uf":"RJ","latitude":"-22.912897","tecnologia":"Sobreposição HFC e GPON","cidade":"Rio de Janeiro","longitude":"-43.200295","color":"yellow","name":"Rio de Janeiro, RJ <br> Sobreposição HFC e GPON"},{"uf":"RN","latitude":"-5.793567","tecnologia":"Sobreposição HFC e GPON","cidade":"Natal","longitude":"-35.198604","color":"yellow","name":"Natal, RN <br> Sobreposição HFC e GPON"},{"uf":"RN","latitude":"-5.911156","tecnologia":"Sobreposição HFC e GPON","cidade":"Parnamirim","longitude":"-35.271","color":"yellow","name":"Parnamirim, RN <br> Sobreposição HFC e GPON"},{"uf":"RO","latitude":"-8.760772","tecnologia":"Sobreposição HFC e GPON","cidade":"Porto Velho","longitude":"-63.899902","color":"yellow","name":"Porto Velho, RO <br> Sobreposição HFC e GPON"},{"uf":"RS","latitude":"-31.32965","tecnologia":"Sobreposição HFC e GPON","cidade":"Bagé","longitude":"-54.09992","color":"yellow","name":"Bagé, RS <br> Sobreposição HFC e GPON"},{"uf":"RS","latitude":"-29.166212","tecnologia":"Sobreposição HFC e GPON","cidade":"Bento Gonçalves","longitude":"-51.516476","color":"yellow","name":"Bento Gonçalves, RS <br> Sobreposição HFC e GPON"},{"uf":"RS","latitude":"-29.947222","tecnologia":"Sobreposição HFC e GPON","cidade":"Cachoeirinha","longitude":"-51.101606","color":"yellow","name":"Cachoeirinha, RS <br> Sobreposição HFC e GPON"},{"uf":"RS","latitude":"-29.674694","tecnologia":"Sobreposição HFC e GPON","cidade":"Campo Bom","longitude":"-51.060601","color":"yellow","name":"Campo Bom, RS <br> Sobreposição HFC e GPON"},{"uf":"RS","latitude":"-29.764242","tecnologia":"Sobreposição HFC e GPON","cidade":"Capão da Canoa","longitude":"-50.028243","color":"yellow","name":"Capão da Canoa, RS <br> Sobreposição HFC e GPON"},{"uf":"RS","latitude":"-29.162905","tecnologia":"Sobreposição HFC e GPON","cidade":"Caxias do Sul","longitude":"-51.179161","color":"yellow","name":"Caxias do Sul, RS <br> Sobreposição HFC e GPON"},{"uf":"RS","latitude":"-27.63638","tecnologia":"Sobreposição HFC e GPON","cidade":"Erechim","longitude":"-52.26969","color":"yellow","name":"Erechim, RS <br> Sobreposição HFC e GPON"},{"uf":"RS","latitude":"-29.222689","tecnologia":"Sobreposição HFC e GPON","cidade":"Farroupilha","longitude":"-51.341853","color":"yellow","name":"Farroupilha, RS <br> Sobreposição HFC e GPON"},{"uf":"RS","latitude":"-29.941319","tecnologia":"Sobreposição HFC e GPON","cidade":"Gravataí","longitude":"-50.986891","color":"yellow","name":"Gravataí, RS <br> Sobreposição HFC e GPON"},{"uf":"RS","latitude":"-29.687548","tecnologia":"Sobreposição HFC e GPON","cidade":"Novo Hamburgo","longitude":"-51.132828","color":"yellow","name":"Novo Hamburgo, RS <br> Sobreposição HFC e GPON"},{"uf":"RS","latitude":"-28.257564","tecnologia":"Sobreposição HFC e GPON","cidade":"Passo Fundo","longitude":"-52.409112","color":"yellow","name":"Passo Fundo, RS <br> Sobreposição HFC e GPON"},{"uf":"RS","latitude":"-31.764898","tecnologia":"Sobreposição HFC e GPON","cidade":"Pelotas","longitude":"-52.337058","color":"yellow","name":"Pelotas, RS <br> Sobreposição HFC e GPON"},{"uf":"RS","latitude":"-30.031771","tecnologia":"Sobreposição HFC e GPON","cidade":"Porto Alegre","longitude":"-51.206533","color":"yellow","name":"Porto Alegre, RS <br> Sobreposição HFC e GPON"},{"uf":"RS","latitude":"-32.034875","tecnologia":"Sobreposição HFC e GPON","cidade":"Rio Grande","longitude":"-52.10705","color":"yellow","name":"Rio Grande, RS <br> Sobreposição HFC e GPON"},{"uf":"RS","latitude":"-29.722021","tecnologia":"Sobreposição HFC e GPON","cidade":"Santa Cruz do Sul","longitude":"-52.434318","color":"yellow","name":"Santa Cruz do Sul, RS <br> Sobreposição HFC e GPON"},{"uf":"RS","latitude":"-29.686817","tecnologia":"Sobreposição HFC e GPON","cidade":"Santa Maria","longitude":"-53.814946","color":"yellow","name":"Santa Maria, RS <br> Sobreposição HFC e GPON"},{"uf":"RS","latitude":"-29.754494","tecnologia":"Sobreposição HFC e GPON","cidade":"São Leopoldo","longitude":"-51.149773","color":"yellow","name":"São Leopoldo, RS <br> Sobreposição HFC e GPON"},{"uf":"RS","latitude":"-30.081899","tecnologia":"Sobreposição HFC e GPON","cidade":"Viamão","longitude":"-51.019435","color":"yellow","name":"Viamão, RS <br> Sobreposição HFC e GPON"},{"uf":"SC","latitude":"-26.992594","tecnologia":"Sobreposição HFC e GPON","cidade":"Balneário Camboriú","longitude":"-48.635152","color":"yellow","name":"Balneário Camboriú, SC <br> Sobreposição HFC e GPON"},{"uf":"SC","latitude":"-26.915501","tecnologia":"Sobreposição HFC e GPON","cidade":"Blumenau","longitude":"-49.070904","color":"yellow","name":"Blumenau, SC <br> Sobreposição HFC e GPON"},{"uf":"SC","latitude":"-27.097706","tecnologia":"Sobreposição HFC e GPON","cidade":"Brusque","longitude":"-48.910663","color":"yellow","name":"Brusque, SC <br> Sobreposição HFC e GPON"},{"uf":"SC","latitude":"-27.100448","tecnologia":"Sobreposição HFC e GPON","cidade":"Chapecó","longitude":"-52.61519","color":"yellow","name":"Chapecó, SC <br> Sobreposição HFC e GPON"},{"uf":"SC","latitude":"-27.594486","tecnologia":"Sobreposição HFC e GPON","cidade":"Florianópolis","longitude":"-48.547696","color":"yellow","name":"Florianópolis, SC <br> Sobreposição HFC e GPON"},{"uf":"SC","latitude":"-26.910097","tecnologia":"Sobreposição HFC e GPON","cidade":"Itajaí","longitude":"-48.670475","color":"yellow","name":"Itajaí, SC <br> Sobreposição HFC e GPON"},{"uf":"SC","latitude":"-27.08607","tecnologia":"Sobreposição HFC e GPON","cidade":"Itapema","longitude":"-48.616038","color":"yellow","name":"Itapema, SC <br> Sobreposição HFC e GPON"},{"uf":"SC","latitude":"-26.304497","tecnologia":"Sobreposição HFC e GPON","cidade":"Joinville","longitude":"-48.848675","color":"yellow","name":"Joinville, SC <br> Sobreposição HFC e GPON"},{"uf":"SC","latitude":"-27.645518","tecnologia":"Sobreposição HFC e GPON","cidade":"Palhoça","longitude":"-48.669661","color":"yellow","name":"Palhoça, SC <br> Sobreposição HFC e GPON"},{"uf":"SC","latitude":"-27.613577","tecnologia":"Sobreposição HFC e GPON","cidade":"São José","longitude":"-48.636607","color":"yellow","name":"São José, SC <br> Sobreposição HFC e GPON"},{"uf":"SE","latitude":"-10.909133","tecnologia":"Sobreposição HFC e GPON","cidade":"Aracaju","longitude":"-37.06766","color":"yellow","name":"Aracaju, SE <br> Sobreposição HFC e GPON"},{"uf":"SP","latitude":"-22.73736","tecnologia":"Sobreposição HFC e GPON","cidade":"Americana","longitude":"-47.333119","color":"yellow","name":"Americana, SP <br> Sobreposição HFC e GPON"},{"uf":"SP","latitude":"-21.207648","tecnologia":"Sobreposição HFC e GPON","cidade":"Araçatuba","longitude":"-50.440106","color":"yellow","name":"Araçatuba, SP <br> Sobreposição HFC e GPON"},{"uf":"SP","latitude":"-21.784511","tecnologia":"Sobreposição HFC e GPON","cidade":"Araraquara","longitude":"-48.178014","color":"yellow","name":"Araraquara, SP <br> Sobreposição HFC e GPON"},{"uf":"SP","latitude":"-23.117059","tecnologia":"Sobreposição HFC e GPON","cidade":"Atibaia","longitude":"-46.556262","color":"yellow","name":"Atibaia, SP <br> Sobreposição HFC e GPON"},{"uf":"SP","latitude":"-23.848568","tecnologia":"Sobreposição HFC e GPON","cidade":"Bertioga","longitude":"-46.139586","color":"yellow","name":"Bertioga, SP <br> Sobreposição HFC e GPON"},{"uf":"SP","latitude":"-22.952681","tecnologia":"Sobreposição HFC e GPON","cidade":"Bragança Paulista","longitude":"-46.54188","color":"yellow","name":"Bragança Paulista, SP <br> Sobreposição HFC e GPON"},{"uf":"SP","latitude":"-23.099204","tecnologia":"Sobreposição HFC e GPON","cidade":"Caçapava","longitude":"-45.707645","color":"yellow","name":"Caçapava, SP <br> Sobreposição HFC e GPON"},{"uf":"SP","latitude":"-22.905346","tecnologia":"Sobreposição HFC e GPON","cidade":"Campinas","longitude":"-47.06595","color":"yellow","name":"Campinas, SP <br> Sobreposição HFC e GPON"},{"uf":"SP","latitude":"-22.572764","tecnologia":"Sobreposição HFC e GPON","cidade":"Cruzeiro","longitude":"-44.96896","color":"yellow","name":"Cruzeiro, SP <br> Sobreposição HFC e GPON"},{"uf":"SP","latitude":"-23.681347","tecnologia":"Sobreposição HFC e GPON","cidade":"Diadema","longitude":"-46.62052","color":"yellow","name":"Diadema, SP <br> Sobreposição HFC e GPON"},{"uf":"SP","latitude":"-20.53523","tecnologia":"Sobreposição HFC e GPON","cidade":"Franca","longitude":"-47.403861","color":"yellow","name":"Franca, SP <br> Sobreposição HFC e GPON"},{"uf":"SP","latitude":"-22.807534","tecnologia":"Sobreposição HFC e GPON","cidade":"Guaratinguetá","longitude":"-45.193788","color":"yellow","name":"Guaratinguetá, SP <br> Sobreposição HFC e GPON"},{"uf":"SP","latitude":"-23.988798","tecnologia":"Sobreposição HFC e GPON","cidade":"Guarujá","longitude":"-46.257959","color":"yellow","name":"Guarujá, SP <br> Sobreposição HFC e GPON"},{"uf":"SP","latitude":"-23.453758","tecnologia":"Sobreposição HFC e GPON","cidade":"Guarulhos","longitude":"-46.533347","color":"yellow","name":"Guarulhos, SP <br> Sobreposição HFC e GPON"},{"uf":"SP","latitude":"-22.852854","tecnologia":"Sobreposição HFC e GPON","cidade":"Hortolândia","longitude":"-47.214259","color":"yellow","name":"Hortolândia, SP <br> Sobreposição HFC e GPON"},{"uf":"SP","latitude":"-23.081591","tecnologia":"Sobreposição HFC e GPON","cidade":"Indaiatuba","longitude":"-47.210093","color":"yellow","name":"Indaiatuba, SP <br> Sobreposição HFC e GPON"},{"uf":"SP","latitude":"-23.254397","tecnologia":"Sobreposição HFC e GPON","cidade":"Itu","longitude":"-47.292688","color":"yellow","name":"Itu, SP <br> Sobreposição HFC e GPON"},{"uf":"SP","latitude":"-23.29829","tecnologia":"Sobreposição HFC e GPON","cidade":"Jacareí","longitude":"-45.965814","color":"yellow","name":"Jacareí, SP <br> Sobreposição HFC e GPON"},{"uf":"SP","latitude":"-23.185218","tecnologia":"Sobreposição HFC e GPON","cidade":"Jundiaí","longitude":"-46.897358","color":"yellow","name":"Jundiaí, SP <br> Sobreposição HFC e GPON"},{"uf":"SP","latitude":"-22.56605","tecnologia":"Sobreposição HFC e GPON","cidade":"Limeira","longitude":"-47.396987","color":"yellow","name":"Limeira, SP <br> Sobreposição HFC e GPON"},{"uf":"SP","latitude":"-22.217108","tecnologia":"Sobreposição HFC e GPON","cidade":"Marília","longitude":"-49.95006","color":"yellow","name":"Marília, SP <br> Sobreposição HFC e GPON"},{"uf":"SP","latitude":"-23.53239","tecnologia":"Sobreposição HFC e GPON","cidade":"Osasco","longitude":"-46.791555","color":"yellow","name":"Osasco, SP <br> Sobreposição HFC e GPON"},{"uf":"SP","latitude":"-22.754178","tecnologia":"Sobreposição HFC e GPON","cidade":"Paulínia","longitude":"-47.148776","color":"yellow","name":"Paulínia, SP <br> Sobreposição HFC e GPON"},{"uf":"SP","latitude":"-22.92463","tecnologia":"Sobreposição HFC e GPON","cidade":"Pindamonhangaba","longitude":"-45.461264","color":"yellow","name":"Pindamonhangaba, SP <br> Sobreposição HFC e GPON"},{"uf":"SP","latitude":"-22.733801","tecnologia":"Sobreposição HFC e GPON","cidade":"Piracicaba","longitude":"-47.647612","color":"yellow","name":"Piracicaba, SP <br> Sobreposição HFC e GPON"},{"uf":"SP","latitude":"-24.008378","tecnologia":"Sobreposição HFC e GPON","cidade":"Praia Grande","longitude":"-46.412057","color":"yellow","name":"Praia Grande, SP <br> Sobreposição HFC e GPON"},{"uf":"SP","latitude":"-21.169923","tecnologia":"Sobreposição HFC e GPON","cidade":"Ribeirão Preto","longitude":"-47.809875","color":"yellow","name":"Ribeirão Preto, SP <br> Sobreposição HFC e GPON"},{"uf":"SP","latitude":"-22.398378","tecnologia":"Sobreposição HFC e GPON","cidade":"Rio Claro","longitude":"-47.554632","color":"yellow","name":"Rio Claro, SP <br> Sobreposição HFC e GPON"},{"uf":"SP","latitude":"-23.67373","tecnologia":"Sobreposição HFC e GPON","cidade":"Santo André","longitude":"-46.543154","color":"yellow","name":"Santo André, SP <br> Sobreposição HFC e GPON"},{"uf":"SP","latitude":"-23.953543","tecnologia":"Sobreposição HFC e GPON","cidade":"Santos","longitude":"-46.335042","color":"yellow","name":"Santos, SP <br> Sobreposição HFC e GPON"},{"uf":"SP","latitude":"-23.691412","tecnologia":"Sobreposição HFC e GPON","cidade":"São Bernardo do Campo","longitude":"-46.564617","color":"yellow","name":"São Bernardo do Campo, SP <br> Sobreposição HFC e GPON"},{"uf":"SP","latitude":"-23.62287","tecnologia":"Sobreposição HFC e GPON","cidade":"São Caetano do Sul","longitude":"-46.554797","color":"yellow","name":"São Caetano do Sul, SP <br> Sobreposição HFC e GPON"},{"uf":"SP","latitude":"-20.811289","tecnologia":"Sobreposição HFC e GPON","cidade":"São José do Rio Preto","longitude":"-49.375767","color":"yellow","name":"São José do Rio Preto, SP <br> Sobreposição HFC e GPON"},{"uf":"SP","latitude":"-23.189554","tecnologia":"Sobreposição HFC e GPON","cidade":"São José Dos Campos","longitude":"-45.884115","color":"yellow","name":"São José Dos Campos, SP <br> Sobreposição HFC e GPON"},{"uf":"SP","latitude":"-23.532905","tecnologia":"Sobreposição HFC e GPON","cidade":"São Paulo","longitude":"-46.63952","color":"yellow","name":"São Paulo, SP <br> Sobreposição HFC e GPON"},{"uf":"SP","latitude":"-23.496886","tecnologia":"Sobreposição HFC e GPON","cidade":"Sorocaba","longitude":"-47.445073","color":"yellow","name":"Sorocaba, SP <br> Sobreposição HFC e GPON"},{"uf":"SP","latitude":"-22.820416","tecnologia":"Sobreposição HFC e GPON","cidade":"Sumaré","longitude":"-47.272823","color":"yellow","name":"Sumaré, SP <br> Sobreposição HFC e GPON"},{"uf":"SP","latitude":"-22.969805","tecnologia":"Sobreposição HFC e GPON","cidade":"Valinhos","longitude":"-46.997367","color":"yellow","name":"Valinhos, SP <br> Sobreposição HFC e GPON"}]
