[{"uf":"ERRO CADASTRO API AL","latitude":"-9.955423","cidade":"Campo Grande","color":"orange","name":"Campo Grande, ERRO CADASTRO API AL <br> ERRO na consulta API","tecnologia":"ERRO na consulta API","longitude":"-36.792608"},{"uf":"ERRO CADASTRO API BA","latitude":"-14.103549","cidade":"Maraú","color":"orange","name":"Maraú, ERRO CADASTRO API BA <br> ERRO na consulta API","tecnologia":"ERRO na consulta API","longitude":"-39.013656"},{"uf":"ERRO CADASTRO API BA","latitude":"-15.434188","cidade":"Santa Luzia","color":"orange","name":"Santa Luzia, ERRO CADASTRO API BA <br> ERRO na consulta API","tecnologia":"ERRO na consulta API","longitude":"-39.328678"},{"uf":"ERRO CADASTRO API BA","latitude":"-12.979217","cidade":"Santana","color":"orange","name":"Santana, ERRO CADASTRO API BA <br> ERRO na consulta API","tecnologia":"ERRO na consulta API","longitude":"-44.05064"},{"uf":"ERRO CADASTRO API BA","latitude":"-12.956845","cidade":"Vera Cruz","color":"orange","name":"Vera Cruz, ERRO CADASTRO API BA <br> ERRO na consulta API","tecnologia":"ERRO na consulta API","longitude":"-38.615295"},{"uf":"ERRO CADASTRO API CE","latitude":"-4.129666","cidade":"Cascavel","color":"orange","name":"Cascavel, ERRO CADASTRO API CE <br> ERRO na consulta API","tecnologia":"ERRO na consulta API","longitude":"-38.241178"},{"uf":"ERRO CADASTRO API GO","latitude":"-19.185113","cidade":"Lagoa Santa","color":"orange","name":"Lagoa Santa, ERRO CADASTRO API GO <br> ERRO na consulta API","tecnologia":"ERRO na consulta API","longitude":"-51.399333"},{"uf":"ERRO CADASTRO API GO","latitude":"-15.295849","cidade":"Santa Isabel","color":"orange","name":"Santa Isabel, ERRO CADASTRO API GO <br> ERRO na consulta API","tecnologia":"ERRO na consulta API","longitude":"-49.425931"},{"uf":"ERRO CADASTRO API MA","latitude":"-4.068726","cidade":"Santa Luzia","color":"orange","name":"Santa Luzia, ERRO CADASTRO API MA <br> ERRO na consulta API","tecnologia":"ERRO na consulta API","longitude":"-45.690026"},{"uf":"ERRO CADASTRO API MG","latitude":"-22.766488","cidade":"Itapeva","color":"orange","name":"Itapeva, ERRO CADASTRO API MG <br> ERRO na consulta API","tecnologia":"ERRO na consulta API","longitude":"-46.224053"},{"uf":"ERRO CADASTRO API MG","latitude":"-19.224022","cidade":"Mesquita","color":"orange","name":"Mesquita, ERRO CADASTRO API MG <br> ERRO na consulta API","tecnologia":"ERRO na consulta API","longitude":"-42.607877"},{"uf":"ERRO CADASTRO API MG","latitude":"-20.76557","cidade":"Presidente Bernardes","color":"orange","name":"Presidente Bernardes, ERRO CADASTRO API MG <br> ERRO na consulta API","tecnologia":"ERRO na consulta API","longitude":"-43.189532"},{"uf":"ERRO CADASTRO API MG","latitude":"-22.742133","cidade":"Toledo","color":"orange","name":"Toledo, ERRO CADASTRO API MG <br> ERRO na consulta API","tecnologia":"ERRO na consulta API","longitude":"-46.372772"},{"uf":"ERRO CADASTRO API MT","latitude":"-15.248331","cidade":"Rio Branco","color":"orange","name":"Rio Branco, ERRO CADASTRO API MT <br> ERRO na consulta API","tecnologia":"ERRO na consulta API","longitude":"-58.125892"},{"uf":"ERRO CADASTRO API PB","latitude":"-7.555022","cidade":"Amparo","color":"orange","name":"Amparo, ERRO CADASTRO API PB <br> ERRO na consulta API","tecnologia":"ERRO na consulta API","longitude":"-37.062838"},{"uf":"ERRO CADASTRO API PB","latitude":"-6.784657","cidade":"Aparecida","color":"orange","name":"Aparecida, ERRO CADASTRO API PB <br> ERRO na consulta API","tecnologia":"ERRO na consulta API","longitude":"-38.080259"},{"uf":"ERRO CADASTRO API PB","latitude":"-6.591381","cidade":"Paulista","color":"orange","name":"Paulista, ERRO CADASTRO API PB <br> ERRO na consulta API","tecnologia":"ERRO na consulta API","longitude":"-37.618548"},{"uf":"ERRO CADASTRO API PB","latitude":"-6.860922","cidade":"Santa Luzia","color":"orange","name":"Santa Luzia, ERRO CADASTRO API PB <br> ERRO na consulta API","tecnologia":"ERRO na consulta API","longitude":"-36.917792"},{"uf":"ERRO CADASTRO API PE","latitude":"-8.486685","cidade":"Cachoeirinha","color":"orange","name":"Cachoeirinha, ERRO CADASTRO API PE <br> ERRO na consulta API","tecnologia":"ERRO na consulta API","longitude":"-36.240182"},{"uf":"ERRO CADASTRO API PE","latitude":"-8.087292","cidade":"Parnamirim","color":"orange","name":"Parnamirim, ERRO CADASTRO API PE <br> ERRO na consulta API","tecnologia":"ERRO na consulta API","longitude":"-39.579547"},{"uf":"ERRO CADASTRO API PE","latitude":"-7.759","cidade":"Trindade","color":"orange","name":"Trindade, ERRO CADASTRO API PE <br> ERRO na consulta API","tecnologia":"ERRO na consulta API","longitude":"-40.26472"},{"uf":"ERRO CADASTRO API RJ","latitude":"-22.720001","cidade":"Rio Claro","color":"orange","name":"Rio Claro, ERRO CADASTRO API RJ <br> ERRO na consulta API","tecnologia":"ERRO na consulta API","longitude":"-44.141874"},{"uf":"ERRO CADASTRO API RN","latitude":"-5.838022","cidade":"Santa Maria","color":"orange","name":"Santa Maria, ERRO CADASTRO API RN <br> ERRO na consulta API","tecnologia":"ERRO na consulta API","longitude":"-35.691409"},{"uf":"ERRO CADASTRO API RN","latitude":"-6.043989","cidade":"Vera Cruz","color":"orange","name":"Vera Cruz, ERRO CADASTRO API RN <br> ERRO na consulta API","tecnologia":"ERRO na consulta API","longitude":"-35.427979"},{"uf":"ERRO CADASTRO API RS","latitude":"-27.942","cidade":"Sarandi","color":"orange","name":"Sarandi, ERRO CADASTRO API RS <br> ERRO na consulta API","tecnologia":"ERRO na consulta API","longitude":"-52.923085"},{"uf":"ERRO CADASTRO API SC","latitude":"-29.191846","cidade":"Praia Grande","color":"orange","name":"Praia Grande, ERRO CADASTRO API SC <br> ERRO na consulta API","tecnologia":"ERRO na consulta API","longitude":"-49.952503"},{"uf":"ERRO CADASTRO API SP","latitude":"-22.218308","cidade":"Vera Cruz","color":"orange","name":"Vera Cruz, ERRO CADASTRO API SP <br> ERRO na consulta API","tecnologia":"ERRO na consulta API","longitude":"-49.820735"},{"uf":"ERRO CADASTRO API TO","latitude":"-12.478465","cidade":"Alvorada","color":"orange","name":"Alvorada, ERRO CADASTRO API TO <br> ERRO na consulta API","tecnologia":"ERRO na consulta API","longitude":"-49.124926"},{"uf":"ERRO CADASTRO API TO","latitude":"-6.115596","cidade":"Cachoeirinha","color":"orange","name":"Cachoeirinha, ERRO CADASTRO API TO <br> ERRO na consulta API","tecnologia":"ERRO na consulta API","longitude":"-47.923399"},{"uf":"ERRO CADASTRO API TO","latitude":"-9.749956","cidade":"Lajeado","color":"orange","name":"Lajeado, ERRO CADASTRO API TO <br> ERRO na consulta API","tecnologia":"ERRO na consulta API","longitude":"-48.356482"}]
